"lat","long","screenName","country","country_code"
40.2109801,-8.4292057,"trocadabola","Portugal","PT"
8.3096067,-81.3066246,"KSAPTY","Panamá","PA"
46.2051192,5.2250324,"LARELIA2407","France","FR"
6.4550575,3.3941795,"harryy_011","Nigeria","NG"
15.3004543,74.0855134,"kamatgoa","<U+092D><U+093E><U+0930><U+0924>","IN"
22.3511148,78.6677428,"BSNLCorporate","<U+092D><U+093E><U+0930><U+0924>","IN"
25.2017152,55.1542459,"elpoetamajestic","<U+0627><U+0644><U+0625><U+0645><U+0627><U+0631><U+0627><U+062A> <U+0627><U+0644><U+0639><U+0631><U+0628><U+064A><U+0629> <U+0627><U+0644><U+0645><U+062A><U+062D><U+062F><U+0629>","AE"
6.4550575,3.3941795,"dark_kvng","Nigeria","NG"
9.0643305,7.4892974,"mindkraft","Nigeria","NG"
19.1334321,72.8882172,"Ethinos","<U+092D><U+093E><U+0930><U+0924>","IN"
-30.9034869,-55.5091113,"aula365","Brasil","BR"
45.7578137,4.8320114,"Kr0cky69","France","FR"
19.4326009,-99.1333416,"Dparleymexico","México","MX"
25.22803095,55.17332793087,"Dohastadiumplus","<U+0627><U+0644><U+0625><U+0645><U+0627><U+0631><U+0627><U+062A> <U+0627><U+0644><U+0639><U+0631><U+0628><U+064A><U+0629> <U+0627><U+0644><U+0645><U+062A><U+062D><U+062F><U+0629>","AE"
6.2388416,80.0542508,"Mr_rammuthu","<U+0DC1><U+0DCA><U+200D><U+0DBB><U+0DD3> <U+0DBD><U+0D82><U+0D9A><U+0DCF><U+0DC0> <U+0B87><U+0BB2><U+0B99><U+0BCD><U+0B95><U+0BC8>","LK"
46.2017559,6.1466014,"500pxrtg","Schweiz/Suisse/Svizzera/Svizra","CH"
41.0799898,-85.1386015,"karenfadus","United States of America","US"
50.8465573,4.351697,"TWadin","België / Belgique / Belgien","BE"
4.6617449,-74.0678010056575,"kennymilano","Colombia","CO"
17.3450946,43.1517127,"alhazmi_com","<U+0627><U+0644><U+0633><U+0639><U+0648><U+062F><U+064A><U+0629>","SA"
-9.6476843,-35.7339264,"carfelipe","Brasil","BR"
53.7907262,-2.2439196,"PrairieSport","UK","GB"
19.1334321,72.8882172,"DreadIndian","<U+092D><U+093E><U+0930><U+0924>","IN"
26.2540493,29.2675469,"mahnegm","<U+0645><U+0635><U+0631>","EG"
41.3874344,2.16903130986842,"e3_barca","España","ES"
41.3828939,2.1774322,"esport3","España","ES"
-22.9110137,-43.2093727,"LuciaVict0ria","Brasil","BR"
-24.5177239,-51.6685729,"vivikkkkj","Brasil","BR"
-37.9196946,-62.1280162,"Canal9convos","Argentina","AR"
13.8000382,-88.9140683,"E_Espinoza21","El Salvador","SV"
23.7593572,90.3788136,"neelima_ela","<U+09AC><U+09BE><U+0982><U+09B2><U+09BE><U+09A6><U+09C7><U+09B6>","BD"
51.4538022,-2.5972985,"AnitchkaNE","UK","GB"
41.8933203,12.4829321,"ClaudiaBruno00","Italia","IT"
43.6711721,-79.3758814,"LustyButters","Canada","CA"
4.5980772,-74.0761028,"LorenaPardo","Colombia","CO"
42.6384261,12.674297,"Il_TerzoUomo","Italia","IT"
9.6000359,7.9999721,"adetife_","Nigeria","NG"
-25.9307699,28.012252,"Ctenlee","South Africa","ZA"
54.8611124,-1.43201801730217,"lorevicente","UK","GB"
-10.3333333,-53.2,"rankeador","Brasil","BR"
21.14133975,-100.070929691885,"acontecendoaqui","México","MX"
48.8413634,2.25306931623782,"_kimpembista","France","FR"
1.4419683,38.4313975,"raccemaurice","Kenya","KE"
50.6305089,3.0706414,"MavingaMakanzu","France","FR"
53.4310417,-1.355187,"getleansocial","UK","GB"
19.4326009,-99.1333416,"Vidishh","México","MX"
12.3724928,-84.8700308,"Oseda07","Nicaragua","NI"
-18.5711894,-41.2339862,"ianroberth7","Brasil","BR"
51.4538022,-2.5972985,"GarryBussell","UK","GB"
19.4326009,-99.1333416,"fanbolero","México","MX"
51.46426255,-0.651714721140142,"afcsean89","UK","GB"
-26.235278,28.37,"CalvinRachoene5","South Africa","ZA"
-10.3333333,-53.2,"CleibsonF","Brasil","BR"
52.8228134,-1.4283564,"WorldPrank4","UK","GB"
50.7979739,3.762778,"SimoneHanneke","België / Belgique / Belgien","BE"
42.6384261,12.674297,"SportEconomy","Italia","IT"
-22.1635605,-42.6633545,"pintandofelicid","Brasil","BR"
45.6209,9.768893,"v4lentinatweets","Italia","IT"
28.4012536,36.567049,"shs142","<U+0627><U+0644><U+0633><U+0639><U+0648><U+062F><U+064A><U+0629>","SA"
6.9349969,79.853845,"fd240094ca8149e","<U+0DC1><U+0DCA><U+200D><U+0DBB><U+0DD3> <U+0DBD><U+0D82><U+0D9A><U+0DCF><U+0DC0> <U+0B87><U+0BB2><U+0B99><U+0BCD><U+0B95><U+0BC8>","LK"
40.033265,-7.8896263,"zerozeropt","Portugal","PT"
25.40704,49.5959025,"malmanhool","<U+0627><U+0644><U+0633><U+0639><U+0648><U+062F><U+064A><U+0629>","SA"
25.7742658,-80.1936589,"Music_Miami","United States of America","US"
50.74467035,-1.85798090318094,"gadge33","UK","GB"
52.08653175,5.24900804050379,"Netherlands1974","Nederland","NL"
-34.57515945,-58.4854764481329,"ferrunning3021","Argentina","AR"
52.0977181,19.0258159,"igolpl","RP","PL"
42.6384261,12.674297,"ThatsLevioh","Italia","IT"
43.9258812,10.201791,"UgoBaroni","Italia","IT"
-33.8492579,151.2128083,"aldocomi","Australia","AU"
-21.3377636,-65.8060017,"YanezApostillas","Bolivia","BO"
51.9565337,8.29369006293168,"ejgp_","Deutschland","DE"
2.0000003,15.9999997,"djALjahZEEra","Cameroun","CM"
41.8933203,12.4829321,"CorSport","Italia","IT"
42.6384261,12.674297,"tuttosport","Italia","IT"
-1.2832533,36.8172449,"birithuson","Kenya","KE"
7.1114611,-73.1172869,"Juanjosemkxx","Colombia","CO"
52.628606,1.29227,"Writefreexpress","UK","GB"
25.9481487,-80.3169953,"cerati9","United States of America","US"
4.990237,7.99743991133195,"promiseetim25","Nigeria","NG"
45.0677551,7.6824892,"FraSulas","Italia","IT"
-34.8802891,-56.1587239,"csiebeluy","Uruguay","UY"
14.693425,-17.447938,"MazDugov","Sénégal","SN"
49.21230655,-2.12559995964288,"ls_Jersey1","Jersey","JE"
19.4326009,-99.1333416,"dportenis","México","MX"
25.2232283,55.1594933008754,"seaimages","<U+0627><U+0644><U+0625><U+0645><U+0627><U+0631><U+0627><U+062A> <U+0627><U+0644><U+0639><U+0631><U+0628><U+064A><U+0629> <U+0627><U+0644><U+0645><U+062A><U+062D><U+062F><U+0629>","AE"
18.5345373,-72.4092495,"domminac3","Ayiti","HT"
25.8470631,-100.3934347,"_brendagzaa","México","MX"
16.404328,120.597126750107,"NettieSthlm","Philippines","PH"
0.3177137,32.5813539,"WalasDavid","Uganda","UG"
-33.4377968,-70.6504451,"RafaAlvCc","Chile","CL"
-25.863611,25.658611,"Breezy_Multi_M","South Africa","ZA"
31.1728192,-7.3366043,"meeril_89","Maroc","MA"
43.6112422,3.8767337,"morelYlone","France","FR"
36.7213028,-4.4216366,"TorresIMG","España","ES"
4.5980772,-74.0761028,"MargaritaBernal","Colombia","CO"
7.1114611,-73.1172869,"Garcia_Breynner","Colombia","CO"
-30.0324999,-51.2303767,"claudinhars75","Brasil","BR"
40.8359336,14.2487826,"canale21","Italia","IT"
19.32055625,-99.1517010707765,"jfcalderon","México","MX"
51.5073219,-0.1276474,"kerziouk","UK","GB"
9.08251365,-83.2465025101169,"terribleortiz","Costa Rica","CR"
53.198627,50.113987,"LuisAndresHenao","<U+0420><U+0424>","RU"
54.0099825,-1.462186,"hopey550","UK","GB"
33.96689355,-6.84266275862037,"AsFaRabatcom","Maroc","MA"
39.7980588,-88.5272636,"lynolchidziva","United States of America","US"
6.4550575,3.3941795,"JerseysOfficial","Nigeria","NG"
1.4419683,38.4313975,"RobeezyD","Kenya","KE"
4.5980772,-74.0761028,"chejo1804","Colombia","CO"
42.8804219,-8.5458608,"NosTelevision","España","ES"
26.2295234,50.5915476,"salman591","<U+200F><U+0627><U+0644><U+0628><U+062D><U+0631><U+064A><U+0646><U+200E>","BH"
44.5513342,10.935016,"FabioMaffettone","Italia","IT"
39.7837304,-100.4458825,"Sindy_KBA","United States of America","US"
51.5073219,-0.1276474,"Fane_Mensah","UK","GB"
40.8359336,14.2487826,"Time4Stream","Italia","IT"
54.4747553,55.9784582,"_RUSSIE_","<U+0420><U+0424>","RU"
-32.8755548,-56.0201525,"SUAREZ_SZN","Uruguay","UY"
53.4791301,-2.2441009,"PaleGreenBand","UK","GB"
41.86352,12.5576041,"UNIBET_IT","Italia","IT"
-34.6143033,-58.5258108049808,"nlopedebarrios","Argentina","AR"
25.7742658,-80.1936589,"SemanarioArg","United States of America","US"
54.7023545,-3.2765753,"MCJTSubs","UK","GB"
-23.5324859,-46.7916801,"AparecidoAlmei5","Brasil","BR"
9.6000359,7.9999721,"segjoh","Nigeria","NG"
51.5073219,-0.1276474,"austinobasi","UK","GB"
47.4983815,19.0404707,"digisport_hu","Magyarország","HU"
35.8812346,14.5178677,"Yobetit","Malta","MT"
42.61946,-7.863112,"o_sanma","España","ES"
29.4246002,-98.4951405,"WF_writerEM","United States of America","US"
18.833333,-98,"peyoneil","México","MX"
6.4550575,3.3941795,"boss_besh","Nigeria","NG"
52.865196,-7.9794599,"carlmcevoy1","Ireland","IE"
32.5010188,-116.9646629,"Alanmacias99FAM","México","MX"
23.7766026,90.3829896,"Dream_MSA","<U+09AC><U+09BE><U+0982><U+09B2><U+09BE><U+09A6><U+09C7><U+09B6>","BD"
5.8101532,0.0995242,"OhemaaPearl2","Ghana","GH"
-25.9363439,28.0813105,"Dimakat35453346","South Africa","ZA"
-34.9059039,-56.1913569,"elnenesilva","Uruguay","UY"
48.9636566,2.5347541,"DcrSirou","France","FR"
40.8762106,-74.0298621,"PochoMartinez24","United States of America","US"
51.5073219,-0.1276474,"lexy_flow","UK","GB"
9.0643305,7.4892974,"estherclimate","Nigeria","NG"
51.5644477,4.75122967848989,"Cosmopolitka","Nederland","NL"
22.5000485,-100.0000375,"jmiguelcm","México","MX"
6.4550575,3.3941795,"chinaydo","Nigeria","NG"
-27.4997483,-58.8170557,"shitshitshitshx","Argentina","AR"
4.5980772,-74.0761028,"jrgomex","Colombia","CO"
4.6617449,-74.0678010056575,"oscarespinosa82","Colombia","CO"
-6.1753942,106.827183,"nannasmuda","Indonesia","ID"
6.4550575,3.3941795,"okehjp","Nigeria","NG"
40.7306458,-73.9866136,"hombreslounge1","United States of America","US"
4.6617449,-74.0678010056575,"paisitadeo","Colombia","CO"
4.5980772,-74.0761028,"The_Soul_King","Colombia","CO"
40.6403167,22.9352716,"elenischool","<U+0395><U+03BB><U+03BB><U+03AC>da","GR"
-32.8755548,-56.0201525,"Soy_AGM","Uruguay","UY"
6.4550575,3.3941795,"iamhismahilll","Nigeria","NG"
-34.9059039,-56.1913569,"treceacero","Uruguay","UY"
7.1114611,-73.1172869,"MiguelPorty","Colombia","CO"
51.4043548,-3.2690216,"reddevil1975","UK","GB"
30.048819,31.243666,"2eeeetch","<U+0645><U+0635><U+0631>","EG"
22.5677459,88.3476023,"Deepmin38317550","<U+092D><U+093E><U+0930><U+0924>","IN"
21.4209763,39.8270873,"i3shg_","<U+0627><U+0644><U+0633><U+0639><U+0648><U+062F><U+064A><U+0629>","SA"
30.048819,31.243666,"abdalahelraggal","<U+0645><U+0635><U+0631>","EG"
40.0028028,-4.003104,"TorneoApuestas","España","ES"
2.8894434,-73.783892,"ColombiaOscura","Colombia","CO"
42.61946,-7.863112,"rojaenelcolacao","España","ES"
30.8703881,-92.007126,"NerissaaEmy","United States of America","US"
-31.7613365,-71.3187697,"Danniimoreno","Chile","CL"
48.8661652,20.3598439,"GinoInvesting","Slovensko","SK"
40.7399963,-2.50593002588473,"Rogertnk","España","ES"
52.7954791,-0.540240286617432,"h_trusswell","UK","GB"
42.6384261,12.674297,"PicklineNews","Italia","IT"
50.5982618,3.2931148,"DeconinckFr","België / Belgique / Belgien","BE"
42.6384261,12.674297,"mrg_75","Italia","IT"
9.08251365,-83.2465025101169,"e_deportivas","Costa Rica","CR"
-0.2201641,-78.5123274,"365DMG","Ecuador","EC"
2.8894434,-73.783892,"ximenitares","Colombia","CO"
-4.8339574,-42.1739786,"italloramon80","Brasil","BR"
41.6521328,-4.728562,"migruizruiz","España","ES"
-42.9165061,-71.3363881,"Rincon_DeFutbol","Argentina","AR"
44.6458885,10.9255707,"figurinepanini","Italia","IT"
19.4326009,-99.1333416,"GattoSpaghetti","México","MX"
16.4263803,-93.1404794,"andycasnava","México","MX"
42.6384261,12.674297,"skillandbet","Italia","IT"
-0.2201641,-78.5123274,"liguistas","Ecuador","EC"
-34.9059039,-56.1913569,"elchacalok","Uruguay","UY"
48.8566101,2.3514992,"LukeShrago","France","FR"
-21.9549806,-49.0232348,"rudylanducci","Brasil","BR"
45.431977,9.989265,"bdlbottega","Italia","IT"
19.4203871,-99.1728472,"jcrojo","México","MX"
51.5073219,-0.1276474,"anilbhanot","UK","GB"
14.6565739,120.9941511,"capra9479","Philippines","PH"
43.0761456,-89.3227110468076,"ChangoWith","United States of America","US"
41.6009563,-85.7907465,"JuanjoTRX","United States of America","US"
18.3953591,-66.094888,"AlexM794","United States of America","US"
-42.9165061,-71.3363881,"AnaNel10","Argentina","AR"
48.9385489,2.4631476,"fahed__hm","France","FR"
45.5643442,17.0118954,"AnicaTurda","Hrvatska","HR"
2.8894434,-73.783892,"BrianTorresRock","Colombia","CO"
48.9542249,2.3025347463654,"slimanetirera","France","FR"
8.0018709,-66.1109318,"megalatina979fm","Venezuela","VE"
6.4550575,3.3941795,"_Teewalters","Nigeria","NG"
6.5960605,3.340787,"4lconnect","Nigeria","NG"
41.2675307,-8.0690985,"SafadAllz","Portugal","PT"
19.4053637,-99.1498637,"Gaby_Coceres","México","MX"
-3.3424178,-60.6775337,"ismamaressaog","Brasil","BR"
30.0659254,31.2163854,"Donvicarleone","<U+0645><U+0635><U+0631>","EG"
-16.7608792,-49.2302087,"suarezchacon_9","Brasil","BR"
-25.9969151,28.6747707,"MufasaUnderdog1","South Africa","ZA"
28.6141793,77.2022662,"sheena2309","<U+092D><U+093E><U+0930><U+0924>","IN"
-23.5506507,-46.6333824,"mornietari","Brasil","BR"
42.6384261,12.674297,"MondoSportivoIT","Italia","IT"
-23.3112878,-51.1595023,"IzauraDemari","Brasil","BR"
52.0565724,-0.8501016,"paulwithe","UK","GB"
4.6617449,-74.0678010056575,"Oficial_LEOCS","Colombia","CO"
-23.523683,-46.5437815,"kawaharu1","Brasil","BR"
10.3825318,7.8533226,"khalifa_dalhat","Nigeria","NG"
-23.1897822,-49.3840493,"ricardoguidio","Brasil","BR"
54.898614,-1.528827,"JOHNMILLS72","UK","GB"
6.4550575,3.3941795,"sami_bam","Nigeria","NG"
-34.9964963,-64.9672817,"PFulbo","Argentina","AR"
4.81804785,-75.6888617199333,"VinosDeAmerica","Colombia","CO"
6.4550575,3.3941795,"Max1023FM","Nigeria","NG"
45.4667971,9.1904984,"Eleonora_Boi","Italia","IT"
14.6417889,-90.5132239,"_ThePhenomenal","Guatemala","GT"
29.33357555,48.0571186896455,"yasserdanga","<U+200F><U+0627><U+0644><U+0643><U+0648><U+064A><U+062A><U+200E>","KW"
41.8933203,12.4829321,"CalcioArg","Italia","IT"
11.0552572,-85.2768558,"embaven_belice","Costa Rica","CR"
-0.2201641,-78.5123274,"CrisNapGom","Ecuador","EC"
51.5073219,-0.1276474,"J355owen","UK","GB"
51.3957695,-0.448532,"PeterSainsbury","UK","GB"
-34.9059039,-56.1913569,"jumican","Uruguay","UY"
-2.4333,40.5333,"BusaneHlomuka","Kenya","KE"
-27.4221702,-55.9350095,"tdtlatinoameric","Argentina","AR"
48.8413634,2.25306931623782,"PSG24hours","France","FR"
51.5073219,-0.1276474,"juliansheasport","UK","GB"
23.7593572,90.3788136,"surzo_uptm","<U+09AC><U+09BE><U+0982><U+09B2><U+09BE><U+09A6><U+09C7><U+09B6>","BD"
40.6501038,-73.9495823,"FultonAleHouse","United States of America","US"
25.0750095,55.1887608818332,"Mohd_khalifa5","<U+0627><U+0644><U+0625><U+0645><U+0627><U+0631><U+0627><U+062A> <U+0627><U+0644><U+0639><U+0631><U+0628><U+064A><U+0629> <U+0627><U+0644><U+0645><U+062A><U+062D><U+062F><U+0629>","AE"
-24.7761086,134.755,"yakuubu11","Australia","AU"
41.8933203,12.4829321,"marcoluci1","Italia","IT"
36.2033361,-115.0552554,"Aywenger","United States of America","US"
8.4963657,4.5480484,"MyHumbleSelff","Nigeria","NG"
43.7009358,7.2683912,"jpaulclaustres","France","FR"
9.6000359,7.9999721,"cybergeak","Nigeria","NG"
41.2675307,-8.0690985,"helloneagle","Portugal","PT"
19.6666671,-88.5000001,"SalgadoErik","México","MX"
-16.0686394,-47.9764907,"MarianaSued","Brasil","BR"
45.4667971,9.1904984,"GioPaini23","Italia","IT"
51.41080285,-0.188097730556762,"WrittenMirror","UK","GB"
50.6305089,3.0706414,"aucarrefour59","France","FR"
33.5091215,-111.8992365,"everzonian","United States of America","US"
2.8894434,-73.783892,"RukissReyna","Colombia","CO"
57.1482429,-2.0928095,"Keithyrobbo","UK","GB"
-33.8548157,151.2164539,"marcelatobon","Australia","AU"
-23.5506507,-46.6333824,"lipebernardii","Brasil","BR"
2.8894434,-73.783892,"camilocabezas07","Colombia","CO"
-12.9822499,-38.4812772,"stylinson114","Brasil","BR"
42.6384261,12.674297,"Gazzetta_it","Italia","IT"
45.4667971,9.1904984,"NicoleGomena","Italia","IT"
1.2904753,103.8520359,"HarshVardhan_Sh","Singapore","SG"
21.4209763,39.8270873,"jesus_in_islam","<U+0627><U+0644><U+0633><U+0639><U+0648><U+062F><U+064A><U+0629>","SA"
54.8611124,-1.43201801730217,"luckiano_","UK","GB"
51.2715316,-0.341452351129091,"BradleyCLWest","UK","GB"
-18.865186,-48.265278,"kamilaa27_","Brasil","BR"
10.3529588,76.5119752,"asianetnewstv","<U+092D><U+093E><U+0930><U+0924>","IN"
-23.1681782,24.5928742,"Stobene_Stiles","Botswana","BW"
25.68976,-80.280843,"Miami_Flamingo","United States of America","US"
17,-96.5,"elcaborotativo","México","MX"
-33.6310779,-70.7592008,"bacarucci","Chile","CL"
-10.3333333,-53.2,"_marinaperes_","Brasil","BR"
50.0619474,19.9368564,"xouted","RP","PL"
11.544634,-72.9069784,"andres32132","Colombia","CO"
-7.510234,-34.9154114,"lucianoamorim94","Brasil","BR"
45.8080945,13.5310806,"themassj","Italia","IT"
36.7014631,-118.7559974,"rose_anap","United States of America","US"
8.9714493,-79.5341802,"Adasilva507","Panamá","PA"
55.7507178,37.6176606,"chavez75745770","<U+0420><U+0424>","RU"
32.5812455,-85.7491225,"Luchitocharris","United States of America","US"
52.19079405,5.3512663166522,"voshans","Nederland","NL"
31.8017703,-106.9927822,"Alejo1Potrillo","United States of America","US"
6.4550575,3.3941795,"GidiFeed","Nigeria","NG"
-28.8166236,24.991639,"dailymaverick","South Africa","ZA"
-1.2832533,36.8172449,"AleksGee","Kenya","KE"
-34.9964963,-64.9672817,"cambalachecoope","Argentina","AR"
-22.9110137,-43.2093727,"Chagas_Kaylane","Brasil","BR"
-23.5506507,-46.6333824,"hstaned","Brasil","BR"
55.4776435,-2.5553768,"gmkelly1979","UK","GB"
37.47427625,14.1385351189452,"GoalSicilia","Italia","IT"
29.7589382,-95.3676974,"NetherlandsTX","United States of America","US"
32.6200699,-115.4440698,"Eddy__Morales","México","MX"
-22.9110137,-43.2093727,"MetroJornal_RJ","Brasil","BR"
-37.4087085,-58.1356841,"sanLs","Argentina","AR"
17.9712148,-76.7928128,"CassiusWatson","Jamaica","JM"
-1.2832533,36.8172449,"maxlanmadokaa","Kenya","KE"
34.6968642,139.4049033,"S27257336","<U+65E5><U+672C>","JP"
46.1939009,-83.0110297,"katyatchoubar","Canada","CA"
18.4287486,-66.1569582824405,"gheovannav","United States of America","US"
-23.5506507,-46.6333824,"BazaarBR","Brasil","BR"
52.7954791,-0.540240286617432,"JuliaPaqueta11","UK","GB"
38.8949549,-77.0366456,"finneyeric","United States of America","US"
36.140807,-5.3541295,"ArthurBlaugrana","Gibraltar","GI"
43.1561681,-75.8449946,"johnny41391","United States of America","US"
45.4667971,9.1904984,"Primaonline","Italia","IT"
9.0643305,7.4892974,"_Misterlouis","Nigeria","NG"
41.9960924,21.4316495,"klipkje","<U+041C><U+0430><U+043A><U+0435><U+0434><U+043E><U+043D><U+0438><U+0458><U+0430>","MK"
37.7767817,-122.4167923,"eaipredo","United States of America","US"
-18.865186,-48.265278,"Nanda25Vianna","Brasil","BR"
39.7837304,-100.4458825,"MiffyOfficialUS","United States of America","US"
42.6384261,12.674297,"redarmyitaly","Italia","IT"
-23.5838463,-46.672325,"newdoghamburger","Brasil","BR"
25.4025941,55.4429486,"israa_ad","<U+0627><U+0644><U+0625><U+0645><U+0627><U+0631><U+0627><U+062A> <U+0627><U+0644><U+0639><U+0631><U+0628><U+064A><U+0629> <U+0627><U+0644><U+0645><U+062A><U+062D><U+062F><U+0629>","AE"
54.5039299,23.9379023,"patatahvoladora","Lietuva","LT"
-26.3689804,27.349464,"keoagile23","South Africa","ZA"
-22.9110137,-43.2093727,"vaz_wall","Brasil","BR"
-42.9165061,-71.3363881,"sandrufloress","Argentina","AR"
19.4326009,-99.1333416,"NorthHunters","México","MX"
-15.7934036,-47.8823172,"AndersonRodr17","Brasil","BR"
20.7598594,-77.860272,"porteexpo1","Cuba","CU"
50.1106444,8.6820917,"Jayyorkman","Deutschland","DE"
43.0361995,-70.8328322,"BettingTipsMan","United States of America","US"
51.5073219,-0.1276474,"RealSport500","UK","GB"
33.8966012,35.5314566,"Annahar","<U+0644><U+0628><U+0646><U+0627><U+0646>","LB"
40.8718291,9.6175397,"WikiFanta","Italia","IT"
48.8566101,2.3514992,"PhDavidMtb","France","FR"
18.547327,-72.3395928,"TICKETmaghaiti","Ayiti","HT"
51.5073219,-0.1276474,"HousingHandUK","UK","GB"
19.32055625,-99.1517010707765,"AnayaSeconds","México","MX"
-10.3333333,-53.2,"poxaedwards","Brasil","BR"
45.813177,15.977048,"24sata_HR","Hrvatska","HR"
54.7023545,-3.2765753,"TheCoverDen","UK","GB"
-23.5506507,-46.6333824,"iamlizazz","Brasil","BR"
30.048819,31.243666,"mostafaelruoby","<U+0645><U+0635><U+0631>","EG"
50.8465573,4.351697,"FredericDeCock","België / Belgique / Belgien","BE"
40.4167047,-3.7035825,"RockSportRadio","España","ES"
59.6749712,14.5208584,"NeoBolshevik","Sverige","SE"
51.46426255,-0.651714721140142,"Rugby_Ash21","UK","GB"
59.6749712,14.5208584,"dhjo","Sverige","SE"
25.6242618,42.3528328,"klllh1999","<U+0627><U+0644><U+0633><U+0639><U+0648><U+062F><U+064A><U+0629>","SA"
40.4167047,-3.7035825,"ImagoSport","España","ES"
-12.8863598,-65.320004,"ali_rm12","Bolivia","BO"
38.7926342,-9.1826701,"hugocmartinsslb","Portugal","PT"
-1.24139975,36.7841127340471,"ogaabi_","Kenya","KE"
52.7589402,-1.9362042,"GazSportsBlog","UK","GB"
52.7589402,-1.9362042,"GazPodmorePT","UK","GB"
8.3096067,-81.3066246,"antoniolara2375","Panamá","PA"
33.0955793,44.1749775,"ERVEGOM","<U+0627><U+0644><U+0639><U+0631><U+0627><U+0642>","IQ"
22.52026785,113.930339073439,"Ganley_23","<U+4E2D><U+56FD>","CN"
48.8566101,2.3514992,"JeremyLne","France","FR"
48.800368,2.2630292,"hamonjeanpaul","France","FR"
41.3653134,15.6936756,"tino_conte","Italia","IT"
41.4623447,15.5430624,"Voce_Bianconera","Italia","IT"
48.8566101,2.3514992,"MaelTsns","France","FR"
30.3824619,-81.5073118,"daddypoolsz","United States of America","US"
4.8416028,6.8604088,"HarryTanen","Nigeria","NG"
53.2789347,-2.9022507,"JadeyWalsh","UK","GB"
-23.5506507,-46.6333824,"wolfsfavela","Brasil","BR"
33.6882155,-86.5014044788996,"manoelastanley","United States of America","US"
44.95704355,7.18908182790506,"micaela_tatiana","Italia","IT"
37.0057958,-89.1772449,"hazem_salah8","United States of America","US"
18.9218274,-99.2342282,"MiguelPantojaMD","México","MX"
6.4550575,3.3941795,"tosemmy5","Nigeria","NG"
46.603354,1.8883335,"SudRadio","France","FR"
44.6458885,10.9255707,"Gianpi71asr","Italia","IT"
48.8566101,2.3514992,"_Pywo","France","FR"
53.4791301,-2.2441009,"dan_illustrator","UK","GB"
41.8492242,44.719326,"bribri097","<U+10E1><U+10D0><U+10E5><U+10D0><U+10E0><U+10D7><U+10D5><U+10D4><U+10DA><U+10DD>","GE"
30.048819,31.243666,"bo_ozil11","<U+0645><U+0635><U+0631>","EG"
15.8656575,74.5261147,"bilgundi","<U+092D><U+093E><U+0930><U+0924>","IN"
-1.2322834,36.9275102,"Musa_Ndirangu","Kenya","KE"
19.4326009,-99.1333416,"PalcoDebate","México","MX"
48.477294,-89.201697,"queridarroba","Canada","CA"
-10.3333333,-53.2,"itsmenandaa1","Brasil","BR"
47.2000338,13.199959,"DICH78","Österreich","AT"
48.8566101,2.3514992,"thesoccerblog1","France","FR"
-20.4494839,-54.6081159,"andreluiscgms","Brasil","BR"
-34.3409331,-58.7670769,"MalvinasData","Argentina","AR"
-35.4271948,-71.6558934,"ricardomonterog","Chile","CL"
40.0796319,-89.4339809,"lydiadzuly","United States of America","US"
51.283714,37.53466,"DFilenko","<U+0420><U+0424>","RU"
55.45435,65.321877,"ssu_64","<U+0420><U+0424>","RU"
-23.5506507,-46.6333824,"alvaro_reisf","Brasil","BR"
37.3886303,-5.9953171,"alexjs_93","España","ES"
54.7023545,-3.2765753,"BetOnAces","UK","GB"
28.7130755,-100.5558349,"chizar_fiction","México","MX"
19.7027116,-101.1923818,"Yosoyelperi","México","MX"
-10.3333333,-53.2,"GalaxyMessenger","Brasil","BR"
34.8082236,135.511831912755,"FerminFM","<U+65E5><U+672C>","JP"
8.2151249,3.5642897,"Deewhy009","Nigeria","NG"
3.4319329,-76.5113048,"brayan_garzon","Colombia","CO"
-22.7573123,-47.1723149155691,"guil_ffreitas","Brasil","BR"
9.6000359,7.9999721,"SewuBem","Nigeria","NG"
40.921611,14.189828,"TatySirio85","Italia","IT"
41.2871196,13.2492009,"WutangLuca","Italia","IT"
40.1212853,-3.8507812,"parronte","España","ES"
64.5731537,11.5280364395482,"HUUULK93","Norge","NO"
26.2540493,29.2675469,"mohamedelzawaw7","<U+0645><U+0635><U+0631>","EG"
39.5162234,-76.9382069,"akoji007","United States of America","US"
40.4481498,-75.7471373,"Arinzay","United States of America","US"
40.033265,-7.8896263,"MadaBarbosa51","Portugal","PT"
39.9215219,32.8537929,"sudemi06","Türkiye","TR"
42.6384261,12.674297,"per4piedi","Italia","IT"
19.4326009,-99.1333416,"ADOMINGUEZMURO","México","MX"
-34.6850347,-58.4015485,"feernaann","Argentina","AR"
43.7283874,-79.34914879325,"TalkRugbyUnion","Canada","CA"
30.6274843249982,104.036573933606,"bfr_kar","<U+4E2D><U+56FD>","CN"
41.3532038,-90.3808307,"oracle_divin","United States of America","US"
48.1371079,11.5753822,"Unwind16","Deutschland","DE"
51.6520851,-0.0810175,"Kemal33118043","UK","GB"
59.9132694,10.7391112,"andjens","Norge","NO"
53.3497645,-6.2602732,"CormacJOKeeffe","Ireland","IE"
45.7065895,12.2471852,"EleonoraDeLuig1","Italia","IT"
5.6028601,-0.1745444,"kwame_agyei","Ghana","GH"
-18.865186,-48.265278,"isadora_ssp","Brasil","BR"
-10.1835604,-48.3337793,"maribarbosaa","Brasil","BR"
19.07236245,-98.3223472316149,"TragarCamote","México","MX"
28.1083929,84.0917139,"RamanSh93108654","<U+0928><U+0947><U+092A><U+093E><U+0932>","NP"
53.4310417,-1.355187,"Michael94369648","UK","GB"
-34.170249,-70.7407427,"marco_navg","Chile","CL"
42.343926,-3.696977,"m_ubeira","España","ES"
19.32055625,-99.1517010707765,"Eduardo_Carrion","México","MX"
51.5073219,-0.1276474,"livefootball","UK","GB"
-0.4598213,36.10067977858,"Ndesh79","Kenya","KE"
51.5073219,-0.1276474,"The_Stevie","UK","GB"
54.7023545,-3.2765753,"dchesterton","UK","GB"
41.3828939,2.1774322,"FCBNOTICIAS","España","ES"
37.3886303,-5.9953171,"veronicajuan","España","ES"
42.6384261,12.674297,"nazionalit","Italia","IT"
52.5738875,-0.2416701,"ItCouldKickOff","UK","GB"
7.0000085,-75.5000086,"mabarbos","Colombia","CO"
-34.6342463,-58.5717454,"AnaliGuerrara","Argentina","AR"
31.1728192,-7.3366043,"hespress","Maroc","MA"
44.8879431,1.2161321,"Jas_Velo","France","FR"
6.4550575,3.3941795,"Oreoluwa_Sam","Nigeria","NG"
-23.5506507,-46.6333824,"PeTotallycrazy","Brasil","BR"
-32.8897294,-68.8442956,"AscencioVela","Argentina","AR"
19.4326009,-99.1333416,"Charl3tas","México","MX"
8.0018709,-66.1109318,"soykatufarias","Venezuela","VE"
52.4082663,16.9335199,"Mich_Kro","RP","PL"
5.41649495,100.343805652947,"ApexAmin","Malaysia","MY"
6.4550575,3.3941795,"zino_orowor","Nigeria","NG"
36.7014631,-118.7559974,"AdrianasIns","United States of America","US"
59.7436749,10.2043749,"MadsKK","Norge","NO"
41.8999277,12.4849541,"Agenzia_Ansa","Italia","IT"
-19.9227318,-43.9450948,"SuperFC","Brasil","BR"
37.3886303,-5.9953171,"alex8nder3","España","ES"
53.4791301,-2.2441009,"topriddy","UK","GB"
44.0580563,6.0638506,"LizGabayMW","France","FR"
41.7270398,-73.3528971,"MichDeji","United States of America","US"
43.1561681,-75.8449946,"nicolasbenatti2","United States of America","US"
40.5834557,-74.1496048,"JosephDeMauro1","United States of America","US"
51.5073219,-0.1276474,"Soc_of_Authors","UK","GB"
-17.0568696,-64.9912286,"minmineriabo","Bolivia","BO"
5.5859456,7.0669651,"Predictionhq","Nigeria","NG"
52.12572195,4.44101686458321,"ZuilenV","Nederland","NL"
38.7311123,-95.2414104,"LAloginho","United States of America","US"
37.3886303,-5.9953171,"Carmenbom","España","ES"
54.8948478,-2.9362311,"ndy_Bates","UK","GB"
-22.9103261,-43.5615527,"ffc_isadora","Brasil","BR"
5.8101532,0.0995242,"asedunga","Ghana","GH"
41.4156774,12.8212218,"BlessedAspie","Italia","IT"
8.0018709,-66.1109318,"anaconda50","Venezuela","VE"
5.357367,-3.994934,"Saintismal","Côte d’Ivoire","CI"
34.6453309,135.5419806,"sakura_joyful","<U+65E5><U+672C>","JP"
-10.3333333,-53.2,"memesdacopa","Brasil","BR"
-28.0555773,-54.8372319528966,"DestinoLiber","Brasil","BR"
53.3497645,-6.2602732,"WorldRugby","Ireland","IE"
36.6816936,-6.1377402,"mjesusmojonzapa","España","ES"
-31.7613365,-71.3187697,"Fah26_","Chile","CL"
25.3361589,55.3605655,"xavi_messii","<U+0627><U+0644><U+0625><U+0645><U+0627><U+0631><U+0627><U+062A> <U+0627><U+0644><U+0639><U+0631><U+0628><U+064A><U+0629> <U+0627><U+0644><U+0645><U+062A><U+062D><U+062F><U+0629>","AE"
-22.9110137,-43.2093727,"bebelzinhagil","Brasil","BR"
-36.7781231,-73.0823093,"robertroxx","Chile","CL"
25.2856329,51.5264162,"ccmmkk222","<U+200F><U+0642><U+0637><U+0631><U+200E>","QA"
40.7306458,-73.9866136,"maskvideo","United States of America","US"
40.0028028,-4.003104,"vicentoller","España","ES"
7.802359,6.7430045,"GbengaGOLD","Nigeria","NG"
11.1276626,123.9621553,"elfarooficial","Philippines","PH"
6.2443382,-75.573553,"Anycovas","Colombia","CO"
45.4667971,9.1904984,"Reynaldikhsan","Italia","IT"
53.7974185,-1.5437941,"RoryBurke142","UK","GB"
29.09261275,48.5133467132717,"osama_madkhali","<U+200F><U+0627><U+0644><U+0643><U+0648><U+064A><U+062A><U+200E>","KW"
-31.5333985,-68.5384882298649,"BustamantMartin","Argentina","AR"
46.9140141,-96.7944984,"LeaZavatti","United States of America","US"
-0.12353365,-78.3589274713217,"viveplay1","Ecuador","EC"
10.3529588,76.5119752,"muhammedsharij","<U+092D><U+093E><U+0930><U+0924>","IN"
19.2634938,-99.1033663,"XochimilcoVerde","México","MX"
-23.5506507,-46.6333824,"plassabones9","Brasil","BR"
46.6624644,16.1655256,"Sobotainfo","Slovenija","SI"
4.6617449,-74.0678010056575,"MariaAzulEjeCaf","Colombia","CO"
-4.7993356,114.5632032,"yosangian","Indonesia","ID"
51.5073219,-0.1276474,"DvmGMzC2dmO0Uxl","UK","GB"
-34.9059039,-56.1913569,"olivera_martin","Uruguay","UY"
-23.5506507,-46.6333824,"aps_sccp10","Brasil","BR"
34.2331373,-102.4107493,"Buchyno","United States of America","US"
-17.0568696,-64.9912286,"PlataApaza","Bolivia","BO"
43.2754779,-2.9590352,"DocJulia","España","ES"
35.266906,-119.0567707,"noelysPA29","United States of America","US"
-17.0568696,-64.9912286,"nteresab","Bolivia","BO"
51.5073219,-0.1276474,"SynerGIS","UK","GB"
-5.6753455,-76.6390925,"AdamSheridan123","Perú","PE"
44.40982965,8.92548179203911,"therfer","Italia","IT"
42.48691275,1.60700011402922,"GunnerDee_","Andorra","AD"
2.8894434,-73.783892,"copse2018","Colombia","CO"
-3.450323,-79.9601969,"rogerpaultoledo","Ecuador","EC"
34.6968642,139.4049033,"ju_xin_14","<U+65E5><U+672C>","JP"
40.0028028,-4.003104,"enlopezbu","España","ES"
8.5058909,76.9570481,"GourisankaranP","<U+092D><U+093E><U+0930><U+0924>","IN"
-12.0621065,-77.0365256,"idadevuelta","Perú","PE"
52.9534161,-1.1492773,"AndyCotterill92","UK","GB"
48.6874172,2.4067546,"EsamBdeuxSquad","France","FR"
-22.9110137,-43.2093727,"DanielR30614025","Brasil","BR"
-1.2832533,36.8172449,"MariamWangu","Kenya","KE"
-7.2459717,112.7378266,"Chimmy_05","Indonesia","ID"
9.624388,-73.2125095,"ElevenSportsUSA","Colombia","CO"
-42.9165061,-71.3363881,"Noelia1vazquez","Argentina","AR"
25.7903245,-80.1404637,"PezBlaugrana","United States of America","US"
52.7078866,-2.7540094,"Tonyb_12","UK","GB"
8.3096067,-81.3066246,"ElChinoLimYueng","Panamá","PA"
-37.8142176,144.9631608,"5times_94","Australia","AU"
19.4326009,-99.1333416,"jockarlos9","México","MX"
38.8147596,-77.0902476527272,"mohab_issa","United States of America","US"
-29.116395,26.215496,"miKeL_MOTHETSI","South Africa","ZA"
22.3511148,78.6677428,"KP_Robbinhood","<U+092D><U+093E><U+0930><U+0924>","IN"
41.8933203,12.4829321,"MariagiovannaA6","Italia","IT"
19.4326009,-99.1333416,"erick_sinK","México","MX"
-8.7996802,115.1506101,"MS_Qolbi","Indonesia","ID"
45.7578137,4.8320114,"Coeur_de_Gone","France","FR"
53.4308358,-2.96091620802355,"syfqIbrhm","UK","GB"
44.9772995,-93.2654692,"jamiejannae","United States of America","US"
2.7243827,101.7381037,"ernestlfc","Malaysia","MY"
20.7137783,70.9853635,"JanaabGeo","<U+092D><U+093E><U+0930><U+0924>","IN"
43.90594575,-74.9983060734476,"kevincarrillo93","United States of America","US"
-22.9110137,-43.2093727,"AFPBrasil","Brasil","BR"
4.4923898,-75.7396016646567,"RenovablesUniv1","Colombia","CO"
-26.205,28.049722,"SteviexHodgson","South Africa","ZA"
39.4699014,-0.3759513,"bztaneh","España","ES"
11.01184845,-74.8086460830206,"federueda","Colombia","CO"
9.6000359,7.9999721,"yungjz","Nigeria","NG"
5.4091179,-4.0422099,"LesProIvoiriens","Côte d’Ivoire","CI"
2.8894434,-73.783892,"camilobotia09","Colombia","CO"
25.63978365,-100.293101629066,"lasplayerasmx","México","MX"
-23.960833,-46.333889,"leticiacapp","Brasil","BR"
8.0018709,-66.1109318,"KuspideSports","Venezuela","VE"
6.4550575,3.3941795,"TeddyKing4real","Nigeria","NG"
8.8311228,7.1724673,"bjay_official","Nigeria","NG"
43.653963,-79.387207,"ViVAtrio","Canada","CA"
50.8276199,3.2659948,"maxmdejode","België / Belgique / Belgien","BE"
51.46426255,-0.651714721140142,"Glanville_Luke","UK","GB"
23.5125498,58.5514017715319,"Ista30478311","<U+0639><U+0645><U+0627><U+0646>","OM"
40.4167047,-3.7035825,"FutbolTotalFC","España","ES"
31.649741,35.162072,"Le_Che7","<U+0627><U+0644><U+0623><U+0631><U+0627><U+0636><U+064A> <U+0627><U+0644><U+0641><U+0644><U+0633><U+0637><U+064A><U+0646><U+064A><U+0629>","PS"
-22.91209195,-43.2311454059056,"BrazilStat","Brasil","BR"
39.7837304,-100.4458825,"garzza1","United States of America","US"
19.32055625,-99.1517010707765,"RafaBringas","México","MX"
48.2354031,16.2842142186391,"_JEC95","Österreich","AT"
45.7578137,4.8320114,"Colfortec","France","FR"
50.74018055,-1.95377383524348,"Sunseeker_Intl","UK","GB"
39.1014537,-84.5124602,"L5Sourcerer","United States of America","US"
19.7027116,-101.1923818,"markodelapaz","México","MX"
16.8602906,-99.8768321,"RoiDyrdek","México","MX"
19.3273399,-99.0191905,"alicencantadora","México","MX"
-34.9059039,-56.1913569,"SyrahUy","Uruguay","UY"
46.5032766,6.6867879,"Touchme4youLe","Schweiz/Suisse/Svizzera/Svizra","CH"
51.46426255,-0.651714721140142,"BoxCommentary","UK","GB"
53.3360693,-6.2333466,"slatterys","Ireland","IE"
26.2540493,29.2675469,"mosta7hassan","<U+0645><U+0635><U+0631>","EG"
19.166667,-104,"amyrventura","México","MX"
33.8439408,9.400138,"adel_0","<U+062A><U+0648><U+0646><U+0633>","TN"
25.2856329,51.5264162,"trajkovskidrag","<U+200F><U+0642><U+0637><U+0631><U+200E>","QA"
35.74836,139.638735,"touiti_abann","<U+65E5><U+672C>","JP"
18.833333,-98,"franjiazul12","México","MX"
29.970278,40.208611,"hadi3306","<U+0627><U+0644><U+0633><U+0639><U+0648><U+062F><U+064A><U+0629>","SA"
35.6681142,139.7725632,"asahi_photo","<U+65E5><U+672C>","JP"
24.6319692,46.7150648,"bntalmajeed","<U+0627><U+0644><U+0633><U+0639><U+0648><U+062F><U+064A><U+0629>","SA"
33.990111,-6.8193862,"MarwaneMao","Maroc <U+2D4D><U+2D4E><U+2D56><U+2D54><U+2D49><U+2D31> <U+0627><U+0644><U+0645><U+063A><U+0631><U+0628>","MA"
25.2232283,55.1594933008754,"KeithAlanDunne","<U+0627><U+0644><U+0625><U+0645><U+0627><U+0631><U+0627><U+062A> <U+0627><U+0644><U+0639><U+0631><U+0628><U+064A><U+0629> <U+0627><U+0644><U+0645><U+062A><U+062D><U+062F><U+0629>","AE"
45.4667971,9.1904984,"ladalessandro","Italia","IT"
41.9960924,21.4316495,"Petrusevski13","<U+041C><U+0430><U+043A><U+0435><U+0434><U+043E><U+043D><U+0438><U+0458><U+0430>","MK"
30.4575212,-111.039789437426,"chelsea9o","México","MX"
53.4791301,-2.2441009,"18wordscomms","UK","GB"
-23.5506507,-46.6333824,"drafteam","Brasil","BR"
25.6242618,42.3528328,"Shksa15","<U+0627><U+0644><U+0633><U+0639><U+0648><U+062F><U+064A><U+0629>","SA"
-53.1630965,-70.9230223,"edisabela1","Chile","CL"
52.865196,-7.9794599,"improvpadawan","Ireland","IE"
19.4326009,-99.1333416,"alex_riguez","México","MX"
6.4550575,3.3941795,"Ngoziruth266","Nigeria","NG"
25.0750095,55.1887608818332,"Ah_Elawad","<U+0627><U+0644><U+0625><U+0645><U+0627><U+0631><U+0627><U+062A> <U+0627><U+0644><U+0639><U+0631><U+0628><U+064A><U+0629> <U+0627><U+0644><U+0645><U+062A><U+062D><U+062F><U+0629>","AE"
7.0625358,-73.0858228,"pedromiguelqc","Colombia","CO"
-10.3333333,-53.2,"_AlineMS","Brasil","BR"
50.9357373,4.3643727,"JelleDeSmedt_","België / Belgique / Belgien","BE"
25.2232283,55.1594933008754,"LeeLee55164282","<U+0627><U+0644><U+0625><U+0645><U+0627><U+0631><U+0627><U+062A> <U+0627><U+0644><U+0639><U+0631><U+0628><U+064A><U+0629> <U+0627><U+0644><U+0645><U+062A><U+062D><U+062F><U+0629>","AE"
10.5111253,-66.9471698,"gusymans","Venezuela","VE"
10.506098,-66.9146017,"Rest_LaEstancia","Venezuela","VE"
15.0610686,-84.5978534,"alvarenga5","Honduras","HN"
51.2303177,2.9203275,"VanstalleJary","België / Belgique / Belgien","BE"
40.4167047,-3.7035825,"dani87perales","España","ES"
40.7306458,-73.9866136,"Josh_BKNY","United States of America","US"
46.3927575,6.8053765,"BenozziLaurent","Schweiz/Suisse/Svizzera/Svizra","CH"
25.4192971,-100.9945068,"robertosavard","México","MX"
45.6944947,9.6698727,"MattMusciumarra","Italia","IT"
55.7507178,37.6176606,"AxelRSCL","<U+0420><U+0424>","RU"
-31.6186951,-60.7019561,"Gusezcurra","Argentina","AR"
-23.1805011,-45.8872969,"aptorquetti","Brasil","BR"
40.5248319,-3.77156277545181,"Nopanaden","España","ES"
-10.3333333,-53.2,"thi_deh","Brasil","BR"
-41.3178431,-72.9827187,"oscarsurdechile","Chile","CL"
-22.9030525,-43.1861702850526,"eduvme","Brasil","BR"
-22.9110137,-43.2093727,"alvarolucas_","Brasil","BR"
48.8566101,2.3514992,"OberonZ","France","FR"
41.0096334,28.9651646,"BatmanCat1","Türkiye","TR"
41.3477372,36.2348331,"35batuhancelik","Türkiye","TR"
10.17778125,-84.0591841807008,"andynuinsa","Costa Rica","CR"
6.36117455,-75.589713296052,"sololiteryfil","Colombia","CO"
-12.133526,-38.420772,"marcelino95","Brasil","BR"
9.6000359,7.9999721,"thisisBOJ","Nigeria","NG"
43.0805101,-109.5340328,"sapendtraz","United States of America","US"
53.45733965,-2.22695880505223,"chronicles_afc","UK","GB"
51.89107295,-0.423030407620178,"ArsenalPoland","UK","GB"
49.1196964,6.1763552,"Riiiiiiiops","France","FR"
-42.9165061,-71.3363881,"neomorocho80","Argentina","AR"
55.7507178,37.6176606,"Sergey_Che_","<U+0420><U+0424>","RU"
16.3471243,47.8915271,"Abuabrahim17","<U+0627><U+0644><U+064A><U+0645><U+0646>","YE"
54.347628,18.6452029,"BZabecki","RP","PL"
-32.0334252,-52.0991297,"Rafael_Petry_","Brasil","BR"
42.5846773,-87.8212263,"iiCabrales","United States of America","US"
52.5170365,13.3888599,"wettsportler","Deutschland","DE"
45.79188,9.346745,"davcolo","Italia","IT"
30.048819,31.243666,"waelabdelfattah","<U+0645><U+0635><U+0631>","EG"
-7.0232302,110.384860835387,"Halooreet","Indonesia","ID"
12.9791198,77.5912997,"Anuperfection","<U+092D><U+093E><U+0930><U+0924>","IN"
-17.0568696,-64.9912286,"OficialSegip","Bolivia","BO"
52.7954791,-0.540240286617432,"casual_80s","UK","GB"
43.653963,-79.387207,"anubhav2207","Canada","CA"
9.0643305,7.4892974,"adamsamana","Nigeria","NG"
29.6479443,-82.3443545,"gf_raihaj4","United States of America","US"
25.73584235,-100.266494516522,"Un_Aleex","México","MX"
40.7306458,-73.9866136,"Marco_NY23","United States of America","US"
53.6466645,-1.7822482,"Brewfitt","UK","GB"
26.2540493,29.2675469,"Rashwan3","<U+0645><U+0635><U+0631>","EG"
41.3758085,-85.700037,"thecasualultra","United States of America","US"
37.9944391,13.6561795,"Trabia_PA","Italia","IT"
53.808725,-1.5409244,"JoesterT","UK","GB"
51.5073219,-0.1276474,"KidDotCo","UK","GB"
53.5677371,-0.0736289,"kidd81","UK","GB"
-12.0621065,-77.0365256,"JoseNoriega1969","Perú","PE"
59.3251172,18.0710935,"perteng1","Sverige","SE"
20.676143,-103.3469982,"apecechea_TM","México","MX"
2.0119217,103.446608,"morasaki12","Malaysia","MY"
42.6384261,12.674297,"football_nerds","Italia","IT"
52.6348392,-1.1302497,"esischwiesisch","UK","GB"
37.9587465,-76.7580211,"PaulPalka","United States of America","US"
-10.3333333,-53.2,"saulo19araujo","Brasil","BR"
40.4071708,49.8461271,"rashidthaalb","Az<U+0259>rbaycan","AZ"
26.2540493,29.2675469,"egyptnegm","<U+0645><U+0635><U+0631>","EG"
2.0000003,15.9999997,"Africafrique","Cameroun","CM"
48.3115806,14.2405637,"kzmnsofia","Österreich","AT"
27.675562,85.275764,"kirtipursaral","<U+0928><U+0947><U+092A><U+093E><U+0932>","NP"
-17.0568696,-64.9912286,"Diputados_Bol","Bolivia","BO"
-23.5506507,-46.6333824,"Ailtommota","Brasil","BR"
-17.0568696,-64.9912286,"adrianmoronbo","Bolivia","BO"
19.1334321,72.8882172,"SaChintu1","<U+092D><U+093E><U+0930><U+0924>","IN"
45.4667971,9.1904984,"Chrisbad87","Italia","IT"
9.624388,-73.2125095,"aabrahamssohn","Colombia","CO"
51.7577649,18.083346,"patryk_fabisiak","RP","PL"
37.5666791,126.9782914,"theseoulvillage","<U+B300><U+D55C><U+BBFC><U+AD6D>","KR"
37.0057958,-89.1772449,"NashatAlexd","United States of America","US"
51,10,"football_read10","Deutschland","DE"
26.2540493,29.2675469,"Teeko_TRS","<U+0645><U+0635><U+0631>","EG"
7.3777462,3.8972497,"Damilarey23","Nigeria","NG"
49.790952,20.3793521,"EstefaniaBenito","RP","PL"
45.4972159,-73.6103642,"KevLaramee","Canada","CA"
4.6617449,-74.0678010056575,"sebastian_rod89","Colombia","CO"
51.0000002,-109.0000002,"SportsPodNet","Canada","CA"
51.5400149,-0.000356420145789579,"messiba_de_poet","UK","GB"
6.4550575,3.3941795,"xclusiveafrica1","Nigeria","NG"
5.5600141,-0.2057437,"ToontoomRadio","Ghana","GH"
-30.0324999,-51.2303767,"igornatusch","Brasil","BR"
14.5906216,120.9799696,"sotnasoinotna","Philippines","PH"
25.0750095,55.1887608818332,"ziahassan","<U+0627><U+0644><U+0625><U+0645><U+0627><U+0631><U+0627><U+062A> <U+0627><U+0644><U+0639><U+0631><U+0628><U+064A><U+0629> <U+0627><U+0644><U+0645><U+062A><U+062D><U+062F><U+0629>","AE"
-2.25,105.3,"LosHoteles","Indonesia","ID"
25.7742658,-80.1936589,"InnovationMCC","United States of America","US"
45.4667971,9.1904984,"MiTomorrow","Italia","IT"
14.4845383,121.0221299,"Ha_1423","Philippines","PH"
2.8894434,-73.783892,"clinepb5","Colombia","CO"
50.6407351,4.66696,"unibetbelgium","België / Belgique / Belgien","BE"
15.6356088,-89.8988087,"kathespinoza7","Guatemala","GT"
-33.8301355,151.2447663,"78Helou","Australia","AU"
41.4728432,2.0817809,"jvilac","España","ES"
-23.960833,-46.333889,"arnaldohase","Brasil","BR"
33.532127,-112.1547187,"culersperelmon","United States of America","US"
13.7538929,100.8160803,"surasak_chu","<U+0E1B><U+0E23><U+0E30><U+0E40><U+0E17><U+0E28><U+0E44><U+0E17><U+0E22>","TH"
54.7023545,-3.2765753,"phcimages","UK","GB"
-42.9165061,-71.3363881,"TimingPolitico","Argentina","AR"
-6.1753942,106.827183,"lewangoalskii09","Indonesia","ID"
-12.0621065,-77.0365256,"erislain","Perú","PE"
50.0159029,22.6796573,"Krzeszov","RP","PL"
6.4550575,3.3941795,"addeyeme","Nigeria","NG"
41.4939531,0.4591083,"Kik_Veri","España","ES"
-34.8569635,-57.9077143,"GOmarvallejos","Argentina","AR"
-22.1225167,-51.3882528,"alecrowley1933","Brasil","BR"
11.0018115,76.9628425,"SeinAndZeit","<U+092D><U+093E><U+0930><U+0924>","IN"
22.5677459,88.3476023,"greymind43","<U+092D><U+093E><U+0930><U+0924>","IN"
-0.2201641,-78.5123274,"herbesta","Ecuador","EC"
-31.9527121,115.8604796,"KC06McM","Australia","AU"
19.4326009,-99.1333416,"MarisolSonne","México","MX"
50.938361,6.959974,"MatthiasRadner","Deutschland","DE"
-22.3712958,-41.7866922,"camelomacae","Brasil","BR"
59.3251172,18.0710935,"felsjc","Sverige","SE"
30.048819,31.243666,"HatemGamals","<U+0645><U+0635><U+0631>","EG"
30.048819,31.243666,"MedinaPortal","<U+0645><U+0635><U+0631>","EG"
15.593325,32.53565,"AnnzzyBlessings","<U+0627><U+0644><U+0633><U+0648><U+062F><U+0627><U+0646>","SD"
39.7837304,-100.4458825,"AdaptiveToolbox","United States of America","US"
7.8776956,-72.4866182,"StevenDuenax","Colombia","CO"
42.6384261,12.674297,"fantagazzetta","Italia","IT"
42.5947625,-8.7669178,"presi13","España","ES"
40.8359336,14.2487826,"fraasco85","Italia","IT"
40.8359336,14.2487826,"popup_2015","Italia","IT"
42.6384261,12.674297,"fashionaut","Italia","IT"
25.2232283,55.1594933008754,"BWC_Security","<U+0627><U+0644><U+0625><U+0645><U+0627><U+0631><U+0627><U+062A> <U+0627><U+0644><U+0639><U+0631><U+0628><U+064A><U+0629> <U+0627><U+0644><U+0645><U+062A><U+062D><U+062F><U+0629>","AE"
41.8933203,12.4829321,"marco_gatta323","Italia","IT"
46.603354,1.8883335,"Sejkoa","France","FR"
1.4419683,38.4313975,"ZahirSalim83","Kenya","KE"
48.8566101,2.3514992,"alejandrakeyes","France","FR"
20.6989852,-103.4243519,"Padillermo","México","MX"
8.0300284,-1.0800271,"NofNews_Ghana","Ghana","GH"
37.1232245,-78.4927721,"Donna53489856","United States of America","US"
39.4699014,-0.3759513,"Ruben288397261","España","ES"
43.653963,-79.387207,"SameerN7","Canada","CA"
-22.9110137,-43.2093727,"MarceloDunlop","Brasil","BR"
10.506098,-66.9146017,"metalbarsa","Venezuela","VE"
37.9923795,-1.1305431,"VanGoghPub","España","ES"
51.8161412,-0.8130383,"Ollie_Bayliss","UK","GB"
40.7306458,-73.9866136,"Alkadravillage","United States of America","US"
46.603354,1.8883335,"selhimbanshee3","France","FR"
-3.7304512,-38.5217989,"lsantosweb","Brasil","BR"
15.342101,44.2005197,"yaldylmy6","<U+0627><U+0644><U+064A><U+0645><U+0646>","YE"
51.46426255,-0.651714721140142,"KRM_Morgan","UK","GB"
19.4326009,-99.1333416,"_Dan_Ram","México","MX"
25.6242618,42.3528328,"AlwatanSA","<U+0627><U+0644><U+0633><U+0639><U+0648><U+062F><U+064A><U+0629>","SA"
-31.6403453,-60.7157178,"santiago_rios","Argentina","AR"
45.4667971,9.1904984,"gm2666","Italia","IT"
51.5073219,-0.1276474,"Heartz15","UK","GB"
14.1696476,121.3336526,"elrodrix","Philippines","PH"
41.0096334,28.9651646,"DoctorOnder","Türkiye","TR"
-17.0568696,-64.9912286,"abi_bolivia","Bolivia","BO"
39.5695818,2.6500745,"maggiezasss","124","ES"
42.2376602,-8.7247205,"ValeroRafa","España","ES"
19.7078812,-101.1569649,"13cvc13","México","MX"
-31.7613365,-71.3187697,"b_sefora","Chile","CL"
42.6384261,12.674297,"welovethejuve","Italia","IT"
40.8762106,-74.0298621,"albitahurtado","United States of America","US"
43.3851103,-3.73669902062898,"JulyTorres9","España","ES"
41.3828939,2.1774322,"royo_sergi","España","ES"
4.7676576,7.0188527,"JoshAmobi","Nigeria","NG"
9.624388,-73.2125095,"RoseLeon111","Colombia","CO"
28.34547755,-81.6330624068667,"ToyinOfLife","United States of America","US"
37.1232245,-78.4927721,"ofpeopl","United States of America","US"
51.46426255,-0.651714721140142,"ProformanceG","UK","GB"
25.2232283,55.1594933008754,"ElDotDono","<U+0627><U+0644><U+0625><U+0645><U+0627><U+0631><U+0627><U+062A> <U+0627><U+0644><U+0639><U+0631><U+0628><U+064A><U+0629> <U+0627><U+0644><U+0645><U+062A><U+062D><U+062F><U+0629>","AE"
50.2164354,8.6915513,"MailtasticApp","Deutschland","DE"
-1.6632409,31.4014928,"FlaviaFazenda","Tanzania","TZ"
43.7283874,-79.34914879325,"wallexstically","Canada","CA"
8.0018709,-66.1109318,"EdgarBlancoJP","Venezuela","VE"
34.2331373,-102.4107493,"iamwbis","United States of America","US"
50.0171741,4.0458492,"cedric_lambert1","France","FR"
11.85677545,42.7577845199437,"rassace","Djibouti <U+062C><U+064A><U+0628><U+0648><U+062A><U+064A>","DJ"
53.198627,50.113987,"14_89276050774","<U+0420><U+0424>","RU"
20.676143,-103.3469982,"israelpiz","México","MX"
38.7077507,-9.1365919,"tretapak","Portugal","PT"
-34.4226303,-58.5808766,"spree95","Argentina","AR"
43.653963,-79.387207,"hitech_guru","Canada","CA"
37.3349271,-5.9270935,"FisioStacruz","España","ES"
43.7283874,-79.34914879325,"pen_int","Canada","CA"
14.5496113,121.0541575,"swambi","Philippines","PH"
53.132398,23.1591679,"pawell147","RP","PL"
58.8355002,14.9257551081646,"LeftwingMartial","Sverige","SE"
36.5748441,139.2394179,"du4nicht9siehst","<U+65E5><U+672C>","JP"
43.8519774,18.3866868,"hajnakafu","BiH / <U+0411><U+0438><U+0425>","BA"
43.0314853,-87.8958096519185,"daddou1512","United States of America","US"
2.8894434,-73.783892,"edharepe","Colombia","CO"
-7.846423,112.1005469,"KhaosodOnline","Indonesia","ID"
40.13821645,-79.8375059939964,"DeVilbissPeter","United States of America","US"
4.9408638,7.8412267,"emtai4","Nigeria","NG"
55.9902293,-3.3966999,"qftravel","UK","GB"
42.4661196,-2.4396676,"LCelorrio","España","ES"
22.3511148,78.6677428,"1ndraJ","<U+092D><U+093E><U+0930><U+0924>","IN"
-31.7613365,-71.3187697,"alaiiiin","Chile","CL"
24.6319692,46.7150648,"Moa_Taz","<U+0627><U+0644><U+0633><U+0639><U+0648><U+062F><U+064A><U+0629>","SA"
52.3744779,9.7385532,"apollo909","Deutschland","DE"
-34.5581493,-58.4558528,"_YvesMerlin","Argentina","AR"
45.4667971,9.1904984,"Emanuele4Music","Italia","IT"
59.5201583,8.1946167,"ReytGoodMag","Norge","NO"
41.8537767,12.4584533,"aallara","Italia","IT"
41.8933203,12.4829321,"DavidePanunzi10","Italia","IT"
4.5980772,-74.0761028,"AscoopColombia","Colombia","CO"
52.5170365,13.3888599,"casareto_re","Deutschland","DE"
52.865196,-7.9794599,"StayPlanet","Ireland","IE"
-34.9964963,-64.9672817,"_yonosoy","Argentina","AR"
49.1370376,7.3676832,"Volpe_Lupo","France","FR"
55.7507178,37.6176606,"Ollissya","<U+0420><U+0424>","RU"
36.7213028,-4.4216366,"ZeniMarina","España","ES"
45.4667971,9.1904984,"edelweiss330","Italia","IT"
4.203033,10.0563057,"HaroldJoakim","Cameroun","CM"
52.5170365,13.3888599,"YaHoeppner","Deutschland","DE"
51.5073219,-0.1276474,"LeeW_Sport","UK","GB"
48.86423125,2.32124879840551,"xavmon","France","FR"
-16.680882,-49.2532691,"revista_factual","Brasil","BR"
6.5422505,-57.7965872,"BBO_Lee_","Guyana","GY"
43.7283874,-79.34914879325,"beeradventures_","Canada","CA"
43.2630051,-2.9349915,"mr_sambo80","España","ES"
42.6384261,12.674297,"davideinno85","Italia","IT"
6.543021,100.22572,"Ebitsuz","Malaysia","MY"
38.1112268,13.3524434,"Giulia90955391","Italia","IT"
44.40726,8.9338624,"GabrieleLepri","Italia","IT"
34.054935,-118.244476,"AntonvonRueden","United States of America","US"
48.6358559,-1.5126096,"Ghigo_07","France","FR"
25.0750095,55.1887608818332,"1boxoffice_com","<U+0627><U+0644><U+0625><U+0645><U+0627><U+0631><U+0627><U+062A> <U+0627><U+0644><U+0639><U+0631><U+0628><U+064A><U+0629> <U+0627><U+0644><U+0645><U+062A><U+062D><U+062F><U+0629>","AE"
4.5980772,-74.0761028,"entrevariedades","Colombia","CO"
52.7826982,1.4133514,"ClemensonSmith","UK","GB"
41.8933203,12.4829321,"Agimegitalia","Italia","IT"
42.6384261,12.674297,"SNAI_Official","Italia","IT"
37.6267868,-1.0006184,"nomascorruptosc","España","ES"
48.8566101,2.3514992,"JeuneGuillou","France","FR"
43.880598,11.0969262,"Batmattz","Italia","IT"
33.8304221,35.5416137,"DJBShoW","<U+0644><U+0628><U+0646><U+0627><U+0646>","LB"
51.5073219,-0.1276474,"riccardinouk","UK","GB"
51.5073219,-0.1276474,"senakaweeraman","UK","GB"
25.22803095,55.17332793087,"AndyR_Sport","<U+0627><U+0644><U+0625><U+0645><U+0627><U+0631><U+0627><U+062A> <U+0627><U+0644><U+0639><U+0631><U+0628><U+064A><U+0629> <U+0627><U+0644><U+0645><U+062A><U+062D><U+062F><U+0629>","AE"
22.3511148,78.6677428,"AniketSugara4","<U+092D><U+093E><U+0930><U+0924>","IN"
5.112735,7.364349,"de_ejimtony","Nigeria","NG"
0.3177137,32.5813539,"pkaturamu","Uganda","UG"
25.2856329,51.5264162,"evosoccerqatar","<U+200F><U+0642><U+0637><U+0631><U+200E>","QA"
-37.95131145,-57.7775096677612,"nachule","Argentina","AR"
-16.0170857,-48.0653054,"oTiagoAndrade","Brasil","BR"
32.3293809,-83.1137366,"UGAGrad","United States of America","US"
2.8894434,-73.783892,"PoliticaHeroica","Colombia","CO"
2.8894434,-73.783892,"Futbolindepalo","Colombia","CO"
40.8359336,14.2487826,"gaver69","Italia","IT"
3.9696002,108.1756093,"rifky_hardyanto","Indonesia","ID"
6.4550575,3.3941795,"wondakhid","Nigeria","NG"
-27.4689682,153.0234991,"PierGac","Australia","AU"
21.5822247,39.1640396,"OKAZ_online","<U+0627><U+0644><U+0633><U+0639><U+0648><U+062F><U+064A><U+0629>","SA"
-40.5733223,-73.1359011,"rickyasfos20","Chile","CL"
59.6749712,14.5208584,"Arvid115","Sverige","SE"
44.8372737,11.6186451,"biancoceles","Italia","IT"
48.6443057,2.7537863,"wronginho","France","FR"
51,10,"gentomobile","Deutschland","DE"
-12.0621065,-77.0365256,"carlos1aparicio","Perú","PE"
18.2536993,-100.193906662846,"elchagotc","México","MX"
-34.9964963,-64.9672817,"MaraArab","Argentina","AR"
26.338393,127.806341,"mannori0228","<U+65E5><U+672C>","JP"
24.6319692,46.7150648,"OmarMadkhali","<U+0627><U+0644><U+0633><U+0639><U+0648><U+062F><U+064A><U+0629>","SA"
19.4326009,-99.1333416,"adamo009","México","MX"
14.5844444,29.4917691,"YasserIb","<U+0627><U+0644><U+0633><U+0648><U+062F><U+0627><U+0646>","SD"
47.3723957,8.5423216,"thomas_ley","Schweiz/Suisse/Svizzera/Svizra","CH"
40.033265,-7.8896263,"PublicoP3","Portugal","PT"
14.4750607,-14.4529612,"teledakar","Sénégal","SN"
-21.4192406,-50.0765588,"leovituzzo","Brasil","BR"
-27.4221702,-55.9350095,"PlayboyTVLA","Argentina","AR"
21.5822247,39.1640396,"889abuomar","<U+0627><U+0644><U+0633><U+0639><U+0648><U+062F><U+064A><U+0629>","SA"
19.4326009,-99.1333416,"CassQueen","México","MX"
4.6617449,-74.0678010056575,"MarcoBullies","Colombia","CO"
40.74123595,-73.356691165361,"promotion_first","United States of America","US"
58.9935488,15.3272215264051,"SwedishMartial","Sverige","SE"
-28.0555773,-54.8372319528966,"PabloTube30","Brasil","BR"
38.3599931,33.9864261,"MertKirik","Türkiye","TR"
-10.3333333,-53.2,"nayaraportelaTV","Brasil","BR"
19.4326009,-99.1333416,"O_Q777","México","MX"
33.4485866,-112.0773456,"mulbrotha","United States of America","US"
6.4550575,3.3941795,"adesoye_jr","Nigeria","NG"
19.1943294,72.9701779,"ritwikspatil","<U+092D><U+093E><U+0930><U+0924>","IN"
6.4550575,3.3941795,"davero24","Nigeria","NG"
45.665698,9.4376098,"andreafabris96","Italia","IT"
44.23912,0.64707,"Alex4778","France","FR"
-34.6411753,-58.4323893,"Guihdo","Argentina","AR"
53.7974185,-1.5437941,"sampatchitt","UK","GB"
4.6617449,-74.0678010056575,"ypaoquint","Colombia","CO"
41.8933203,12.4829321,"lollo_grim","Italia","IT"
-32.8897294,-68.8442956,"elmiradormza","Argentina","AR"
44.2015624,0.6176324,"47FM","France","FR"
42.6384261,12.674297,"JohnHard3","Italia","IT"
35.62125,139.688014,"kewmetal","<U+65E5><U+672C>","JP"
-17.0568696,-64.9912286,"ElvioDiasCruz2","Bolivia","BO"
34.395342,-111.7632755,"ToshuTrinity","United States of America","US"
4.5980772,-74.0761028,"amycadc","Colombia","CO"
-23.6121912,-46.7790539,"feafirmino","Brasil","BR"
25.7742658,-80.1936589,"PAUCHAVARRO","United States of America","US"
17.9656844,-92.9020085,"rubensalcocer93","México","MX"
39.6594484,2.9862211,"Indiano1331","124","ES"
48.8566101,2.3514992,"Franck_Berteau","France","FR"
6.794565,3.8559855,"getbigi","Nigeria","NG"
43.653963,-79.387207,"GoldenChyld15","Canada","CA"
6.4550575,3.3941795,"Hubmart","Nigeria","NG"
25.011997,121.4656619,"TW_nextmedia","<U+81FA><U+7063>","TW"
6.4550575,3.3941795,"Chartbee","Nigeria","NG"
59.3251172,18.0710935,"mikaelgrev","Sverige","SE"
40.8762106,-74.0298621,"yeiner_morales","United States of America","US"
0.3177137,32.5813539,"Mickyjam","Uganda","UG"
19.166667,-104,"Fernand58257707","México","MX"
10.2735633,-84.0739102,"ContactingMarco","Costa Rica","CR"
-42.9165061,-71.3363881,"RitchieRweda","Argentina","AR"
40.7306458,-73.9866136,"YouTubeHowToDIY","United States of America","US"
-30.1501099,-51.2211468,"rafaelprimo","Brasil","BR"
40.06160405,9.09775380655307,"Cane_Sciolt0","Italia","IT"
-22.9110137,-43.2093727,"annytty","Brasil","BR"
19.531932,76.0554568,"Ash_9378","<U+092D><U+093E><U+0930><U+0924>","IN"
2.8894434,-73.783892,"ronaldrojasro","Colombia","CO"
9.0643305,7.4892974,"NAhmadAmina","Nigeria","NG"
-23.6495294,-46.8528497,"sebosapienza","Brasil","BR"
-18.865186,-48.265278,"gpires22","Brasil","BR"
45.4667971,9.1904984,"teo_brotherwolf","Italia","IT"
5.4091179,-4.0422099,"julienne_bamba","Côte d’Ivoire","CI"
11.1276626,123.9621553,"laugutierrezba","Philippines","PH"
37.0155427,128.5857804,"ambrocioa07","<U+B300><U+D55C><U+BBFC><U+AD6D>","KR"
48.8566101,2.3514992,"Oud1bad1","France","FR"
-28.3769444,32.4141667,"rcistlucia","South Africa","ZA"
19.4326009,-99.1333416,"diegodelunamx","México","MX"
53.45733965,-2.22695880505223,"VikramAffiliate","UK","GB"
45.6944947,9.6698727,"dariovioli","Italia","IT"
53.4150056,18.4590968,"kievo_Polska","RP","PL"
13.7538929,100.8160803,"GSB_Family","<U+0E1B><U+0E23><U+0E30><U+0E40><U+0E17><U+0E28><U+0E44><U+0E17><U+0E22>","TH"
53.45733965,-2.22695880505223,"SportsBetTrans","UK","GB"
28.6415665,77.2126308,"K_Anusuya7","<U+092D><U+093E><U+0930><U+0924>","IN"
35.609985,140.118126,"GusFielding","<U+65E5><U+672C>","JP"
13.7538929,100.8160803,"Jane_nunz","<U+0E1B><U+0E23><U+0E30><U+0E40><U+0E17><U+0E28><U+0E44><U+0E17><U+0E22>","TH"
48.6443057,2.7537863,"tweekette75","France","FR"
-1.3397668,-79.3666965,"RC_MACHADO182","Ecuador","EC"
-0.2201641,-78.5123274,"fausnoriega","Ecuador","EC"
19.4326009,-99.1333416,"eunyoomoonlight","México","MX"
10.9,6.5,"D59034579","Nigeria","NG"
-12.0294672,-72.8601102,"okeek01","Perú","PE"
36.4191096,-6.1460683,"Que_miras_","España","ES"
-10.3333333,-53.2,"srsmalik","Brasil","BR"
-23.5506507,-46.6333824,"camabap","Brasil","BR"
27.708796,85.320244,"prjsubedi","<U+0928><U+0947><U+092A><U+093E><U+0932>","NP"
4.6617449,-74.0678010056575,"JulsAlGhul","Colombia","CO"
44.88374595,-0.605126444043871,"JeanDoobs","France","FR"
-22.9110137,-43.2093727,"dodsdmr","Brasil","BR"
45.7369595,8.8968127,"SciabolataFFP","Italia","IT"
-32.8755548,-56.0201525,"furtadoastoviz9","Uruguay","UY"
-27.0233364,28.6255542,"IsmailJamAlllag","South Africa","ZA"
9.0643305,7.4892974,"europafixed666","Nigeria","NG"
-23.5506507,-46.6333824,"Antoniogzzx","Brasil","BR"
38.8949549,-77.0366456,"NeverAgainGC","United States of America","US"
51.5073219,-0.1276474,"sunphilips","UK","GB"
12.9791198,77.5912997,"saideep_btr","<U+092D><U+093E><U+0930><U+0924>","IN"
38.212263,45.7285348,"deepanalfist","<U+200F><U+0627><U+06CC><U+0631><U+0627><U+0646><U+200E>","IR"
-17.0568696,-64.9912286,"OrlandoGadch","Bolivia","BO"
2.8894434,-73.783892,"jolecere","Colombia","CO"
51.5073219,-0.1276474,"Zireael1272","UK","GB"
48.6937223,6.1834097,"Liloudelu","France","FR"
4.8416028,6.8604088,"anwurichi","Nigeria","NG"
53.86117155,-2.54711154031047,"brickweb","UK","GB"
51.4538022,-2.5972985,"princestsocial","UK","GB"
51.456659,-0.9696512,"alexstanger1993","UK","GB"
25.7742658,-80.1936589,"msvanezuela","United States of America","US"
60.6750132,17.1467019,"beckmansasikter","Sverige","SE"
35.7006177,51.401375,"KhosroshahiAmin","<U+200F><U+0627><U+06CC><U+0631><U+0627><U+0646><U+200E>","IR"
19.4326009,-99.1333416,"HctorDanielOrt2","México","MX"
52.537789,13.40914,"eduardopassos","Deutschland","DE"
14.4750607,-14.4529612,"CanoeKayakSN","Sénégal","SN"
32.9407496,52.9471344,"ISNAMEDIA","<U+200F><U+0627><U+06CC><U+0631><U+0627><U+0646><U+200E>","IR"
18.1923169,-99.6023669533758,"hazadrian","México","MX"
38.5820624,68.7915550419527,"AlexDeBargeX","<U+0422><U+043E><U+04B7><U+0438><U+043A><U+0438><U+0441><U+0442><U+043E><U+043D>","TJ"
-33.4377968,-70.6504451,"VIASATELITEpCL","Chile","CL"
42.2765867424767,-71.1669079436859,"sadsherlock2003","United States of America","US"
18.547327,-72.3395928,"loucendy","Ayiti","HT"
25.939003,-80.1255338721964,"BishBlueHammer","United States of America","US"
-22.9110137,-43.2093727,"oficialsmigol","Brasil","BR"
6.4550575,3.3941795,"ShehuWilliams","Nigeria","NG"
-38.9355475,-67.990978,"DadoRodri","Argentina","AR"
50.9446987,-0.527605823623323,"mattnashmetro","UK","GB"
-6.1753942,106.827183,"bobby_fauzie","Indonesia","ID"
3.0332673,-75.2794423959783,"AdrianaCorts1","Colombia","CO"
41.3828939,2.1774322,"sorianoencarna","España","ES"
16.3471243,47.8915271,"77mohammed30","<U+0627><U+0644><U+064A><U+0645><U+0646>","YE"
45.4972159,-73.6103642,"TyPatrick89","Canada","CA"
30.311908,-81.3964734,"GotSoccer","United States of America","US"
9.0643305,7.4892974,"kunlerystar","Nigeria","NG"
14.4845383,121.0221299,"iNasorrry","Philippines","PH"
-23.5506507,-46.6333824,"luizmurat","Brasil","BR"
-19.9227318,-43.9450948,"sorayabelusi","Brasil","BR"
33.5950627,-7.6187768,"AlaeBennani","Maroc <U+2D4D><U+2D4E><U+2D56><U+2D54><U+2D49><U+2D31> <U+0627><U+0644><U+0645><U+063A><U+0631><U+0628>","MA"
41.2966556,-7.74678,"PedroVeloso1893","Portugal","PT"
26.2384363,-99.8873,"aRomeroll","México","MX"
41.0293083,29.0326345,"Emre_Tilev","Türkiye","TR"
21.7670269,-78.0947805,"fiston28","Cuba","CU"
22.3798036,40.7132441,"drhman","<U+0627><U+0644><U+0633><U+0639><U+0648><U+062F><U+064A><U+0629>","SA"
53.45733965,-2.22695880505223,"TheConciergeMag","UK","GB"
45.4667971,9.1904984,"ilcruccu","Italia","IT"
40.0028028,-4.003104,"nereita_reyes3","España","ES"
18.2563027,42.3741645,"AliAlrobayee","<U+0627><U+0644><U+0633><U+0639><U+0648><U+062F><U+064A><U+0629>","SA"
-7.0258285,-37.2766817,"guedesshopping","Brasil","BR"
-8.1947233,111.1035716,"BagusPr39906126","Indonesia","ID"
53.5415797,-2.1147831,"whitey1379","UK","GB"
-12.0294672,-72.8601102,"icanabdul_","Perú","PE"
48.8566101,2.3514992,"LionelMaugain","France","FR"
21.161829,-86.82505,"pariscarbonell","México","MX"
-19.0183481,-40.5367485,"paulmferreira","Brasil","BR"
40.282476,-3.7923422,"dannysanz9","España","ES"
59.3251172,18.0710935,"pogledizstklma","Sverige","SE"
45.4667971,9.1904984,"Robxrecords","Italia","IT"
41.8933203,12.4829321,"AdrianoStabile","Italia","IT"
48.8566101,2.3514992,"serpenta99","France","FR"
-5.6753455,-76.6390925,"UksRestaurants","Perú","PE"
-31.4173391,-64.183319,"SerZuliani","Argentina","AR"
14.5906216,120.9799696,"miggatsby","Philippines","PH"
45.4667971,9.1904984,"MondoFutbolCom","Italia","IT"
41.8933203,12.4829321,"m_vitelli","Italia","IT"
20.8542575,-99.84756,"delaRo5a","México","MX"
30.616625,-81.7170472,"GiMartorelli","United States of America","US"
8.3096067,-81.3066246,"Supricom_panama","Panamá","PA"
51.7967047,0.579338882096011,"CharlesGreig","UK","GB"
-17.0568696,-64.9912286,"mayumijhanina","Bolivia","BO"
-42.9165061,-71.3363881,"hoteldolmen","Argentina","AR"
10.506098,-66.9146017,"MAURICIOGOMEZ48","Venezuela","VE"
40.555597,-102.8175857,"pablo_de_nariz","United States of America","US"
-4.7993356,114.5632032,"rido_turisma","Indonesia","ID"
43.3185536,11.3316533,"InsdataInter","Italia","IT"
50.1752564,6.6251052,"Miguelmm40","Deutschland","DE"
13.7538929,100.8160803,"jaboong_rama2","<U+0E1B><U+0E23><U+0E30><U+0E40><U+0E17><U+0E28><U+0E44><U+0E17><U+0E22>","TH"
50.923662,4.4096403,"PromoCrypto","België / Belgique / Belgien","BE"
29.7589382,-95.3676974,"mrdjt007","United States of America","US"
-33.4278677,-70.611597032211,"rissito","Chile","CL"
43.4623102,-3.8101067,"luismivia","España","ES"
2.8894434,-73.783892,"JimmyTez","Colombia","CO"
-27.200475,25.979925,"Realebo21749362","South Africa","ZA"
52.9534161,-1.1492773,"MarkLeek5","UK","GB"
-24.655319,25.908728,"Schilo_Znchenko","Botswana","BW"
4.5980772,-74.0761028,"christianruge","Colombia","CO"
46.2303063,7.6605757,"cassandra190798","Schweiz/Suisse/Svizzera/Svizra","CH"
36.1662859,-115.149225,"ChuckBassBet","United States of America","US"
-1.6632409,31.4014928,"ray_combo","Tanzania","TZ"
41.8933203,12.4829321,"rosariarenna","Italia","IT"
4.5980772,-74.0761028,"VivaLaVidaBien","Colombia","CO"
6.2443382,-75.573553,"Sammuelh","Colombia","CO"
-33.4377968,-70.6504451,"JorgeEd95718174","Chile","CL"
2.3923759,112.8471939,"OfficialAarif10","Malaysia","MY"
19.416667,-98.166667,"marjd_1029","México","MX"
52.7954791,-0.540240286617432,"salmon_stuffed","UK","GB"
19.1334321,72.8882172,"rajendranpandey","<U+092D><U+093E><U+0930><U+0924>","IN"
16.4263803,-93.1404794,"Ed_Maldonado","México","MX"
51.46426255,-0.651714721140142,"SashaDugdale","UK","GB"
-9.0478679,-70.5264976,"duainerodrigues","Brasil","BR"
-21.7609533,-43.3501129,"tania_tpimentel","Brasil","BR"
-34.4739792,-58.5264866,"Wallychoo","Argentina","AR"
-32.9595004,-60.6615415,"Rostower","Argentina","AR"
-10.3333333,-53.2,"fabiabrams","Brasil","BR"
25.0750095,55.1887608818332,"elmorphy","<U+0627><U+0644><U+0625><U+0645><U+0627><U+0631><U+0627><U+062A> <U+0627><U+0644><U+0639><U+0631><U+0628><U+064A><U+0629> <U+0627><U+0644><U+0645><U+062A><U+062D><U+062F><U+0629>","AE"
-33.8548157,151.2164539,"RoyLukman3","Australia","AU"
1.5333554,32.2166578,"MeBelbels","Uganda","UG"
38.7077507,-9.1365919,"WhosChampion","Portugal","PT"
-6.1753942,106.827183,"nurfahmibudi","Indonesia","ID"
51.5073219,-0.1276474,"richardmelik","UK","GB"
40.0028028,-4.003104,"GalaGalk","España","ES"
43.653963,-79.387207,"Algocentric","Canada","CA"
51.0000002,-109.0000002,"SoccerTodaySPN","Canada","CA"
-6.1753942,106.827183,"INDOBARCA_JKT","Indonesia","ID"
-34.9964963,-64.9672817,"GerardoGerman52","Argentina","AR"
39.4011424,-3.1341671,"DRVABQX","España","ES"
22.5000001,-100.5000001,"Normalu62","México","MX"
45.0141141,9.1235778,"elia_mendola","Italia","IT"
25.2017152,55.1542459,"tabnrgy","<U+0627><U+0644><U+0625><U+0645><U+0627><U+0631><U+0627><U+062A> <U+0627><U+0644><U+0639><U+0631><U+0628><U+064A><U+0629> <U+0627><U+0644><U+0645><U+062A><U+062D><U+062F><U+0629>","AE"
45.4667971,9.1904984,"soProud_of_You","Italia","IT"
-34.6130461,-58.3824172,"UTOPIA_ARG","Argentina","AR"
37.169397,-104.5005411,"mccannworldtnt","United States of America","US"
43.653963,-79.387207,"FadiTYounes","Canada","CA"
25.2232283,55.1594933008754,"alex_jbutler","<U+0627><U+0644><U+0625><U+0645><U+0627><U+0631><U+0627><U+062A> <U+0627><U+0644><U+0639><U+0631><U+0628><U+064A><U+0629> <U+0627><U+0644><U+0645><U+062A><U+062D><U+062F><U+0629>","AE"
25.3336984,51.2295295,"laaa99","<U+200F><U+0642><U+0637><U+0631><U+200E>","QA"
42.6384261,12.674297,"SisalMatchpoint","Italia","IT"
4.7916539,100.9276057,"Nuraz_Wawa","Malaysia","MY"
59.3251172,18.0710935,"geniet","Sverige","SE"
52.7954791,-0.540240286617432,"VenueInsight","UK","GB"
46.7323875,-117.0001651,"pabloquirogav","United States of America","US"
59.3388631,18.0613931,"Alberto_Torress","Sverige","SE"
51.95686495,-0.223050907841725,"JWriting_","UK","GB"
15.6356088,-89.8988087,"LeiJimenez_","Guatemala","GT"
25.2232283,55.1594933008754,"busybusyboi","<U+0627><U+0644><U+0625><U+0645><U+0627><U+0631><U+0627><U+062A> <U+0627><U+0644><U+0639><U+0631><U+0628><U+064A><U+0629> <U+0627><U+0644><U+0645><U+062A><U+062D><U+062F><U+0629>","AE"
8.0300284,-1.0800271,"admaalnews","Ghana","GH"
-33.8548157,151.2164539,"GeorgeBakhos1","Australia","AU"
6.4550575,3.3941795,"LagosTalks913","Nigeria","NG"
4.6617449,-74.0678010056575,"cizdibujos","Colombia","CO"
28.6141793,77.2022662,"satish19882009","<U+092D><U+093E><U+0930><U+0924>","IN"
-12.9822499,-38.4812772,"MARCO5_PAULO","Brasil","BR"
-23.5506507,-46.6333824,"MilldeskBrasil","Brasil","BR"
-22.285833,-46.612222,"FootballAMZ","Brasil","BR"
-6.8638235,39.2551949,"M_Derbi","Tanzania","TZ"
1.2904753,103.8520359,"bolasepako","Singapore","SG"
40.4416941,-79.9900861,"michael_mautino","United States of America","US"
45.4673791,7.874797,"axel619987","Italia","IT"
6.4550575,3.3941795,"iadeleke50","Nigeria","NG"
25.7742658,-80.1936589,"goandfundme","United States of America","US"
51.5073219,-0.1276474,"african_glitz","UK","GB"
37.64057565,-7.67066509468617,"ChoibolsanHSB","Portugal","PT"
50.6407351,4.66696,"yentlkeuppens","België / Belgique / Belgien","BE"
9.6000359,7.9999721,"opeoluway2k","Nigeria","NG"
52.865196,-7.9794599,"SportsFansPics","Ireland","IE"
-12.0621065,-77.0365256,"KreuzaPop","Perú","PE"
43.653963,-79.387207,"MagoKikeops","Canada","CA"
41.4680096,2.07836549643705,"tve_catalunya","España","ES"
36.7014631,-118.7559974,"cartoystory","United States of America","US"
41.6521328,-4.728562,"saragarme","España","ES"
14.479454,-17.0756946,"jatouna","Sénégal","SN"
14.693425,-17.447938,"dahiie_d","Sénégal","SN"
25.7742658,-80.1936589,"lopezgovlaw","United States of America","US"
-31.6186951,-60.7019561,"jonasbj10","Argentina","AR"
40.4167047,-3.7035825,"neel2_5","España","ES"
41.3828939,2.1774322,"albasketch","España","ES"
-23.5506507,-46.6333824,"LilianPacce","Brasil","BR"
-42.9165061,-71.3363881,"julianbla","Argentina","AR"
51.5073219,-0.1276474,"AmandaDCNN","UK","GB"
45.4667971,9.1904984,"carloparigi82","Italia","IT"
6.4550575,3.3941795,"kingdavide","Nigeria","NG"
51.5073219,-0.1276474,"verityrhealey","UK","GB"
40.7306458,-73.9866136,"CaptMorganFX","United States of America","US"
18.47167415,-69.9246298160486,"ZDeportes","R.D.","DO"
41.8933203,12.4829321,"francyfanelli","Italia","IT"
-10.3333333,-53.2,"danieltui2","Brasil","BR"
19.25113375,-99.5937281303492,"BamBamRam31","México","MX"
35.7006177,51.401375,"ghesegoo","<U+200F><U+0627><U+06CC><U+0631><U+0627><U+0646><U+200E>","IR"
26.54431035,50.027247680962,"Muallem_10","<U+0627><U+0644><U+0633><U+0639><U+0648><U+062F><U+064A><U+0629>","SA"
42.6384261,12.674297,"Betscannerit","Italia","IT"
52.7954791,-0.540240286617432,"SportplanTeam","UK","GB"
14.951507,-16.812868,"peindafall","Sénégal","SN"
25.0750095,55.1887608818332,"aljuda_com","<U+0627><U+0644><U+0625><U+0645><U+0627><U+0631><U+0627><U+062A> <U+0627><U+0644><U+0639><U+0631><U+0628><U+064A><U+0629> <U+0627><U+0644><U+0645><U+062A><U+062D><U+062F><U+0629>","AE"
23.7593572,90.3788136,"MHM_306","<U+09AC><U+09BE><U+0982><U+09B2><U+09BE><U+09A6><U+09C7><U+09B6>","BD"
55.5043158,38.0353929,"DobryakPux","<U+0420><U+0424>","RU"
25.6905515,-80.235008979837,"ELNOTICIEROVISU","United States of America","US"
-24.1852569,-65.2994789,"DIEGOTJUJUY","Argentina","AR"
26.2540493,29.2675469,"eltaweal","<U+0645><U+0635><U+0631>","EG"
9.624388,-73.2125095,"Edmo06","Colombia","CO"
51.5073219,-0.1276474,"englishpen","UK","GB"
54.7764152,-1.5758539,"inbozwetrust","UK","GB"
-34.9059039,-56.1913569,"MonteCarloTV","Uruguay","UY"
9.6000359,7.9999721,"Prosper_Kenn","Nigeria","NG"
40.19531445,44.5146085133621,"emaratalyoum","<U+0540><U+0561><U+0575><U+0561><U+057D><U+057F><U+0561><U+0576>","AM"
-15.5492443,-47.3301212,"juliombrizuela","Brasil","BR"
-11.9364841,-76.694451,"KVN_Marcos","Perú","PE"
-33.2892968,26.5655743,"PatrickNella","South Africa","ZA"
-42.9165061,-71.3363881,"cachorrosego","Argentina","AR"
11.1276626,123.9621553,"AldoesAldo","Philippines","PH"
38.7311123,-95.2414104,"OneSuspended","United States of America","US"
53.5522264,8.5865509,"CraftBaron","Deutschland","DE"
53.7137251,-2.097753,"garethdrake33","UK","GB"
51.5073219,-0.1276474,"SP12XX","UK","GB"
36.5298292,-6.2925679,"javibe6","España","ES"
-26.205,28.049722,"ActioncoachK","South Africa","ZA"
43.7283874,-79.34914879325,"Bellagio_Europe","Canada","CA"
-17.0568696,-64.9912286,"amandadavilat","Bolivia","BO"
9.6000359,7.9999721,"Miembamish","Nigeria","NG"
43.62889055,11.4247600745542,"raspa90","Italia","IT"
54.6294982,-6.7654416,"KarenDouglas_NI","UK","GB"
26.2540493,29.2675469,"Eslamelhadary3","<U+0645><U+0635><U+0631>","EG"
64.6863136,97.7453061,"KorshunovG","<U+0420><U+0424>","RU"
-23.8319444,30.1611111,"REASON22242776","South Africa","ZA"
-10.3333333,-53.2,"orafasanti","Brasil","BR"
40.8762106,-74.0298621,"ander_rodriguez","United States of America","US"
53.6475988,-3.0041751,"Kerrie46860876","UK","GB"
51.5073219,-0.1276474,"konymandibio","UK","GB"
26.23932285,50.595028610022,"Zoozaie","<U+200F><U+0627><U+0644><U+0628><U+062D><U+0631><U+064A><U+0646><U+200E>","BH"
28.6141793,77.2022662,"love4ulot","<U+092D><U+093E><U+0930><U+0924>","IN"
22.7203851,75.8682103,"SuyashParakh","<U+092D><U+093E><U+0930><U+0924>","IN"
53.5818981,-2.1039554,"Tom_OAFC","UK","GB"
-34.9964963,-64.9672817,"EnUnaMochila","Argentina","AR"
40.4167047,-3.7035825,"adrianferreras_","España","ES"
41.3874344,2.16903130986842,"Dennisfcb1899","España","ES"
8.0018709,-66.1109318,"CandangaVen","Venezuela","VE"
55.7507178,37.6176606,"eugeniya797","<U+0420><U+0424>","RU"
-32.8755548,-56.0201525,"Maikgianino","Uruguay","UY"
52.5170365,13.3888599,"lingoda_com","Deutschland","DE"
31.9515694,35.9239625,"ahmad_alaghbar","<U+0627><U+0644><U+0623><U+0631><U+062F><U+0646>","JO"
41.3828939,2.1774322,"FerranPeral8","España","ES"
52.5170365,13.3888599,"OnefootballEN","Deutschland","DE"
27.7567667,-81.4639835,"GoldnGoal_","United States of America","US"
51.5073219,-0.1276474,"NBRA_ORG","UK","GB"
37.4863239,-122.2325233,"owMobility","United States of America","US"
53.7229229,-1.8604874,"lewisdawson97","UK","GB"
53.4791301,-2.2441009,"DannyAins88","UK","GB"
10.4195841,-75.5271224,"MarielaAlvear","Colombia","CO"
56.8723481,59.9722268,"Der_Parole","<U+0420><U+0424>","RU"
8.0018709,-66.1109318,"PABLOAPONTEEPSD","Venezuela","VE"
41.8933203,12.4829321,"repubblica","Italia","IT"
46.1927519,6.2343811,"ntsornella","France","FR"
12.3724928,-84.8700308,"JrLanzas","Nicaragua","NI"
5.70531055,-75.0921269896775,"MounirNouniA","Colombia","CO"
41.2871196,13.2492009,"Marco3Moretti","Italia","IT"
-22.8832371,-43.1154552,"ingridmiler","Brasil","BR"
51.5073219,-0.1276474,"sinsin_x","UK","GB"
-23.1805011,-45.8872969,"NexoLinguistica","Brasil","BR"
59.938732,30.316229,"JackMarsman","<U+0420><U+0424>","RU"
24.0002488,53.9994829,"Al_Baihani","<U+0627><U+0644><U+0625><U+0645><U+0627><U+0631><U+0627><U+062A> <U+0627><U+0644><U+0639><U+0631><U+0628><U+064A><U+0629> <U+0627><U+0644><U+0645><U+062A><U+062D><U+062F><U+0629>","AE"
39.7837304,-100.4458825,"Beaneyvi","United States of America","US"
6.4550575,3.3941795,"Naija102FM","Nigeria","NG"
42.6384261,12.674297,"RBcasting","Italia","IT"
46.603354,1.8883335,"FrogPubs","France","FR"
52.7954791,-0.540240286617432,"Ampugh14","UK","GB"
34.6968642,139.4049033,"corazon_buta","<U+65E5><U+672C>","JP"
25.2232283,55.1594933008754,"Greentarnie","<U+0627><U+0644><U+0625><U+0645><U+0627><U+0631><U+0627><U+062A> <U+0627><U+0644><U+0639><U+0631><U+0628><U+064A><U+0629> <U+0627><U+0644><U+0645><U+062A><U+062D><U+062F><U+0629>","AE"
51.5073219,-0.1276474,"UTCManagement","UK","GB"
4.5980772,-74.0761028,"Rub_Boa","Colombia","CO"
-33.4377968,-70.6504451,"NicoSerranoF","Chile","CL"
33.0955793,44.1749775,"The_boos_98","<U+0627><U+0644><U+0639><U+0631><U+0627><U+0642>","IQ"
4.5980772,-74.0761028,"orlanmorenograf","Colombia","CO"
41.582811,-4.7214404,"Stc2_Irene","España","ES"
12.9791198,77.5912997,"theanalystsdesk","<U+092D><U+093E><U+0930><U+0924>","IN"
12.2350139,109.1945786,"MOHCTPOB","Vi<U+1EC7>t Nam","VN"
57.6674439,14.9735595,"mohamedsandouk","Sverige","SE"
6.4550575,3.3941795,"b25328b628e049d","Nigeria","NG"
52.5678306,1.6628618,"RuthieR","UK","GB"
-31.4173391,-64.183319,"meyerwg53","Argentina","AR"
25.2017152,55.1542459,"sergejacko8","<U+0627><U+0644><U+0625><U+0645><U+0627><U+0631><U+0627><U+062A> <U+0627><U+0644><U+0639><U+0631><U+0628><U+064A><U+0629> <U+0627><U+0644><U+0645><U+062A><U+062D><U+062F><U+0629>","AE"
25.6242618,42.3528328,"AAjjwah","<U+0627><U+0644><U+0633><U+0639><U+0648><U+062F><U+064A><U+0629>","SA"
10.4494466,-64.1630154,"cdbm1985","Venezuela","VE"
48.1371079,11.5753822,"SZ_TopNews","Deutschland","DE"
35.357674,139.318278,"opmkiyo","<U+65E5><U+672C>","JP"
-37.8142176,144.9631608,"kashthefuturist","Australia","AU"
39.4699014,-0.3759513,"TutanPusic","España","ES"
36.6816936,-6.1377402,"Tsb97","España","ES"
-22.9110137,-43.2093727,"bobpulga","Brasil","BR"
19.3273399,-99.0191905,"Mats11","México","MX"
34.9823018,33.1451285,"Sadag02","<U+039A><U+03CD>p<U+03C1><U+03BF><U+03C2> - Kibris","CY"
-34.6130461,-58.3824172,"jmasterok","Argentina","AR"
30.3308401,71.247499,"azadwali03","<U+200F><U+067E><U+0627><U+06A9><U+0633><U+062A><U+0627><U+0646><U+200E>","PK"
26.8234472,18.1236723,"mabroukaobiedi","<U+0644><U+064A><U+0628><U+064A><U+0627>","LY"
51.7607271,-0.5652554,"BoatBerkhamsted","UK","GB"
-34.9964963,-64.9672817,"JuanBFMartinez","Argentina","AR"
9.6000359,7.9999721,"thefootiefans","Nigeria","NG"
48.1371079,11.5753822,"SZ","Deutschland","DE"
40.4167047,-3.7035825,"Elena_Heras","España","ES"
51.52373945,-0.143911928919142,"TheAlbany","UK","GB"
-23.5506507,-46.6333824,"wernervf","Brasil","BR"
9.0433816,-83.2985847,"franmonzxn","Costa Rica","CR"
40.4167047,-3.7035825,"FranOmega","España","ES"
48.1371079,11.5753822,"SZ_Sport","Deutschland","DE"
40.4167047,-3.7035825,"ChemayC","España","ES"
19.4839446,-99.6899716,"Omarrios211","México","MX"
35.2078012,72.5473968,"ralkhabbaz","<U+200F><U+067E><U+0627><U+06A9><U+0633><U+062A><U+0627><U+0646><U+200E>","PK"
46.0850276,12.9392936,"maxasq","Italia","IT"
5.5043842,-73.0375052,"SoyLauraMejia","Colombia","CO"
31.746214,34.9886825,"SamuelSokol","<U+05D9><U+05E9><U+05E8><U+05D0><U+05DC>","IL"
40.06160405,9.09775380655307,"danieledem75","Italia","IT"
6.45563705,3.38322335013503,"ETLFSport","Nigeria","NG"
51.7520131,-1.2578499,"jonboy_avfc","UK","GB"
25.3336984,51.2295295,"AbdallaQatar","<U+200F><U+0642><U+0637><U+0631><U+200E>","QA"
5.5600141,-0.2057437,"ampmghana","Ghana","GH"
2.8894434,-73.783892,"JRafaelVet","Colombia","CO"
34.6968642,139.4049033,"kyodo_sports_en","<U+65E5><U+672C>","JP"
45.813177,15.977048,"TomislavZerjav1","Hrvatska","HR"
24.6319692,46.7150648,"Alihadadi2","<U+0627><U+0644><U+0633><U+0639><U+0648><U+062F><U+064A><U+0629>","SA"
41.3828939,2.1774322,"sidroj","España","ES"
0.3177137,32.5813539,"URAuganda","Uganda","UG"
-33.4665062,-70.6742985,"cmzepeda","Chile","CL"
-33.4377968,-70.6504451,"nanmunoz84","Chile","CL"
38.4153421,27.144474,"daralof","Türkiye","TR"
33.94287445,-118.128731601431,"fabolous4u","United States of America","US"
40.3429683,-76.4233816,"mouhama69015483","United States of America","US"
-34.6143033,-58.5258108049808,"Vector_C_","Argentina","AR"
-17.0568696,-64.9912286,"mincombolivia","Bolivia","BO"
-42.9165061,-71.3363881,"candydashgame","Argentina","AR"
41.3874344,2.16903130986842,"linformatiu_tve","España","ES"
19.4326009,-99.1333416,"actavio_perez","México","MX"
41.8933203,12.4829321,"GolDiTacco","Italia","IT"
-10.3333333,-53.2,"vcafemania","Brasil","BR"
-10.3333333,-53.2,"minifazenda","Brasil","BR"
48.1371079,11.5753822,"SattlerBettina","Deutschland","DE"
2.8894434,-73.783892,"diegoaguerrero","Colombia","CO"
6.4550575,3.3941795,"JabTalks","Nigeria","NG"
-22.9110137,-43.2093727,"RafaNedved","Brasil","BR"
-20.5394478,-47.4015023,"eduzanete","Brasil","BR"
-33.928992,18.417396,"cedricklufwe","South Africa","ZA"
-33.928992,18.417396,"stmuteya20","South Africa","ZA"
52.2033051,0.124862,"_TheDistrict","UK","GB"
25.7744291,-80.1332415,"DJMauricioParra","United States of America","US"
51.5073219,-0.1276474,"Chels7a","UK","GB"
46.7985624,8.2319736,"Sangi_22","Schweiz/Suisse/Svizzera/Svizra","CH"
-23.5506507,-46.6333824,"alvarojosetv","Brasil","BR"
44.9129225,8.615321,"MuseoGrigio","Italia","IT"
52.5052921,13.3481655,"EmbBoliviaDe","Deutschland","DE"
28.1083929,84.0917139,"elninopawan","<U+0928><U+0947><U+092A><U+093E><U+0932>","NP"
-36.8270169,-73.0503189,"PaulinaAstrozaS","Chile","CL"
-19.9227318,-43.9450948,"5adiq","Brasil","BR"
37.3444908,-6.0606771,"baltasarb","España","ES"
40.4167047,-3.7035825,"Webftorres","España","ES"
7.9897371,-5.5679458,"SehiFlanIves","Côte d’Ivoire","CI"
51.5175426,-0.1651864,"UrbanPubs","UK","GB"
51.5073219,-0.1276474,"TheBOMmedia","UK","GB"
2.8894434,-73.783892,"PauloJurado11","Colombia","CO"
-23.5506507,-46.6333824,"mariollj","Brasil","BR"
8.1080955,-63.551078,"edgarbo63957770","Venezuela","VE"
-17.0568696,-64.9912286,"Calderory","Bolivia","BO"
-17.0568696,-64.9912286,"RedPatriaNueva","Bolivia","BO"
2.8894434,-73.783892,"dbagett","Colombia","CO"
52.7954791,-0.540240286617432,"footybookreview","UK","GB"
41.1172364,1.2546057,"mireiabar","España","ES"
-16.4956371,-68.1336346,"tritigrehernan","Bolivia","BO"
8.0018709,-66.1109318,"SaborMagros","Venezuela","VE"
-33.928992,18.417396,"majola_bayanda","South Africa","ZA"
6.4550575,3.3941795,"i_am_dahray","Nigeria","NG"
37.3399964,-4.5811614,"adrianpp99","España","ES"
50.8465573,4.351697,"GDPR2018RulesUs","België / Belgique / Belgien","BE"
59.4372155,24.7453688,"angelorumori","Eesti","EE"
44.4936714,11.3430347,"Ritagliati_RCdC","Italia","IT"
-37.3282887,-59.1356957,"cersinger","Argentina","AR"
53.902334,27.5618791,"luciusdomenus","<U+0411><U+0435><U+043B><U+0430><U+0440><U+0443><U+0441><U+044C>","BY"
-16.680882,-49.2532691,"araujopaula2","Brasil","BR"
22.2793278,114.1628131,"Albert_CHPM","<U+4E2D><U+56FD>","CN"
24.471153,39.6111216,"zozmoon15","<U+0627><U+0644><U+0633><U+0639><U+0648><U+062F><U+064A><U+0629>","SA"
37.3886303,-5.9953171,"patxiarrogante","España","ES"
42.6384261,12.674297,"LucianoGenna","Italia","IT"
40.4167047,-3.7035825,"BahiaFutbol","España","ES"
26.54431035,50.027247680962,"khalil_showieen","<U+0627><U+0644><U+0633><U+0639><U+0648><U+062F><U+064A><U+0629>","SA"
6.4550575,3.3941795,"RBenitez85","Nigeria","NG"
34.2331373,-102.4107493,"tomdevlieger","United States of America","US"
-1.3106188,36.7791433,"geonal","Kenya","KE"
4.8142912,-75.6946451,"JuangoLopez","Colombia","CO"
-42.9165061,-71.3363881,"iambrianhidalgo","Argentina","AR"
-24.655319,25.908728,"rtmodisane","Botswana","BW"
45.7774551,3.0819427,"celinevrs_","France","FR"
-22.8832371,-43.1154552,"rzanata_arnos","Brasil","BR"
45.689128,11.4608229,"MarkPenCase","Italia","IT"
51.5073219,-0.1276474,"livestreamhdnet","UK","GB"
32.9407496,52.9471344,"ramin_rezaian","<U+200F><U+0627><U+06CC><U+0631><U+0627><U+0646><U+200E>","IR"
52.7954791,-0.540240286617432,"Igor_Mizzi","UK","GB"
35.266906,-119.0567707,"DavidRIglesiasS","United States of America","US"
15.593325,32.53565,"al_wa7dany","<U+0627><U+0644><U+0633><U+0648><U+062F><U+0627><U+0646>","SD"
36.7014631,-118.7559974,"Tshirt_Amazon","United States of America","US"
-17.0568696,-64.9912286,"Canal_BoliviaTV","Bolivia","BO"
60.6750132,17.1467019,"samersalam80","Sverige","SE"
-32.9595004,-60.6615415,"marrampo","Argentina","AR"
2.8894434,-73.783892,"TatianaHigueraV","Colombia","CO"
51.38660965,0.547714867236488,"faddi73","UK","GB"
-34.6130461,-58.3824172,"BAUTISTANET","Argentina","AR"
2.3923759,112.8471939,"shoban86","Malaysia","MY"
-34.9964963,-64.9672817,"dgabin","Argentina","AR"
40.973212,14.204928,"Giovann23825206","Italia","IT"
50.0182986,2.85582835513011,"baskaise","France","FR"
51.5073219,-0.1276474,"felixthecat58","UK","GB"
-15.7862543,35.0035694,"Justinjnr11","Malawi","MW"
41.5645337,-93.7595281,"SirKingAle","United States of America","US"
55.9725499,-3.1709492,"doingthe116","UK","GB"
6.4550575,3.3941795,"iamuchejustin","Nigeria","NG"
-24.655319,25.908728,"dionmpelega","Botswana","BW"
-17.0568696,-64.9912286,"endedelbeni","Bolivia","BO"
25.2295108,55.1821420307293,"SUTRULA","<U+0627><U+0644><U+0625><U+0645><U+0627><U+0631><U+0627><U+062A> <U+0627><U+0644><U+0639><U+0631><U+0628><U+064A><U+0629> <U+0627><U+0644><U+0645><U+062A><U+062D><U+062F><U+0629>","AE"
12.5630825,7.6207063,"muhddoguru","Nigeria","NG"
36.7213028,-4.4216366,"restlagrada","España","ES"
-31.9527121,115.8604796,"trebor4128","Australia","AU"
33.8439408,9.400138,"AfGharbi","<U+062A><U+0648><U+0646><U+0633>","TN"
40.5834557,-74.1496048,"ebologna131","United States of America","US"
9.08251365,-83.2465025101169,"margacortesvela","Costa Rica","CR"
-25.3548171,-57.4427315,"braian182","Paraguay","PY"
54.8611124,-1.43201801730217,"_RESIST_","UK","GB"
53.2852213,50.4785577,"FmoCqsUKdyn3Nyf","<U+0420><U+0424>","RU"
14.4750607,-14.4529612,"adamadiallodk93","Sénégal","SN"
40.19531445,44.5146085133621,"omeradli","<U+0540><U+0561><U+0575><U+0561><U+057D><U+057F><U+0561><U+0576>","AM"
6.2443382,-75.573553,"AramburoFelipe","Colombia","CO"
39.0806223,17.127196,"RaffaeleArcuri5","Italia","IT"
9.6000359,7.9999721,"SamuelTonbara","Nigeria","NG"
-19.0477251,-65.2594306,"Vitoriel","Bolivia","BO"
40.8762106,-74.0298621,"yesuab8","United States of America","US"
4.7676576,7.0188527,"dahgabe","Nigeria","NG"
43.3518038,-2.5272504,"chanifreedom85","España","ES"
12.3724928,-84.8700308,"VladimirCuauht1","Nicaragua","NI"
49.9064531,5.6881541,"JFCHollange","België / Belgique / Belgien","BE"
6.2443382,-75.573553,"HenryHoracio","Colombia","CO"
40.4167047,-3.7035825,"mlcano75","España","ES"
48.7587887,15.7224934,"ChristophPlank","Österreich","AT"
50.6305089,3.0706414,"CRABY4","France","FR"
52.7954791,-0.540240286617432,"JMcDFoundation1","UK","GB"
35.2078012,72.5473968,"nonoaltaitoon","<U+200F><U+067E><U+0627><U+06A9><U+0633><U+062A><U+0627><U+0646><U+200E>","PK"
19.1334321,72.8882172,"issahilkhattar","<U+092D><U+093E><U+0930><U+0924>","IN"
3.377026,-76.5220476388547,"andrescuervoch","Colombia","CO"
29.54053215,-95.2934528703637,"mirendoconto","United States of America","US"
41.480348,14.0423319,"Simic1983","Italia","IT"
-23.3514733,-47.8552438,"aaxideagosto","Brasil","BR"
14.612647,-61.0865086,"DEECOOL972","France","FR"
-5.5028089,122.561801480511,"lskamanasa","Indonesia","ID"
51.8559222,0.4369776,"EyeFelsted","UK","GB"
-34.9059039,-56.1913569,"BienestarFP","Uruguay","UY"
-42.9165061,-71.3363881,"maxidvl","Argentina","AR"
38.2636612,22.0576191,"amna_news","<U+0395><U+03BB><U+03BB><U+03AC>da","GR"
-22.9110137,-43.2093727,"futebollnutella","Brasil","BR"
51.4816546,-3.1791934,"TrystanPugh","UK","GB"
0.3177137,32.5813539,"KambaSaleh320","Uganda","UG"
-23.5506507,-46.6333824,"VeneciaWichi","Brasil","BR"
45.6500335,13.7706559,"albertogerdol4","Italia","IT"
41.4070103,-75.6519859898207,"FreedomOU812","United States of America","US"
35.2078012,72.5473968,"m_alnooh","<U+200F><U+067E><U+0627><U+06A9><U+0633><U+062A><U+0627><U+0646><U+200E>","PK"
25.7182834,-100.191653,"maqdel","México","MX"
32.9407496,52.9471344,"mhrshd_Ak","<U+200F><U+0627><U+06CC><U+0631><U+0627><U+0646><U+200E>","IR"
53.6466645,-1.7822482,"peterotooleart","UK","GB"
55.204557,-6.9787452,"quiquefigueroa","Ireland","IE"
8.0018709,-66.1109318,"CorporacionTPD","Venezuela","VE"
51.5073219,-0.1276474,"ciablog","UK","GB"
53.4018582,-2.5680223597163,"TomMaston","UK","GB"
48.8566101,2.3514992,"Kalima_RP","France","FR"
-34.6510527,-58.6217416,"MarceloLepo","Argentina","AR"
48.2315175,17.0529694543339,"tvmarkiza","Slovensko","SK"
19.4326009,-99.1333416,"pixervatory","México","MX"
52.4341996,-1.8915624,"elmunro","UK","GB"
40.033265,-7.8896263,"esbanjador","Portugal","PT"
-10.3333333,-53.2,"flaviostat","Brasil","BR"
9.0643305,7.4892974,"genero_johnnel","Nigeria","NG"
43.645191,3.83641366544284,"lorennbravo","France","FR"
51.5073219,-0.1276474,"allscores1","UK","GB"
51.5073219,-0.1276474,"KlisEmm","UK","GB"
38.1035389,15.6397556,"Gios_87","Italia","IT"
4.5980772,-74.0761028,"acm2308","Colombia","CO"
6.4550575,3.3941795,"oge4u","Nigeria","NG"
10.1796632,-67.4606765,"robertoaguston1","Venezuela","VE"
8.0018709,-66.1109318,"CCPDVSAGASANACO","Venezuela","VE"
34.054935,-118.244476,"gowithdennis","United States of America","US"
11.1276626,123.9621553,"jhonfarcor","Philippines","PH"
19.4484168,-99.1579752,"poquitofaithmt","México","MX"
45.4850939,12.23314,"RinoMoschiano","Italia","IT"
8.0018709,-66.1109318,"DuranBlanquita","Venezuela","VE"
28.0780718,-82.7637127,"sammax_group","United States of America","US"
40.5473698,-3.6260586,"juliogomez92","España","ES"
51.5073219,-0.1276474,"peteweller","UK","GB"
22.3511148,78.6677428,"ravikhedar","<U+092D><U+093E><U+0930><U+0924>","IN"
8.0018709,-66.1109318,"MAKING2012","Venezuela","VE"
-31.3383669,-64.178637,"2dedos_d_frente","Argentina","AR"
-34.5068414,-60.8659827,"PaliClerc","Argentina","AR"
10.6412212,-71.6075383,"PachitoBarrrios","Venezuela","VE"
8.0018709,-66.1109318,"eloina_mogollon","Venezuela","VE"
-28.8166236,24.991639,"LindsayMaasdorp","South Africa","ZA"
23.0131338,-80.8328748,"VladimirSedeno","Cuba","CU"
52.2460367,0.7125173,"MacebearerThe","UK","GB"
-2,-80,"ManuelEspinozEC","Ecuador","EC"
53.7435722,-0.3394758,"TweetTommo1","UK","GB"
53.4791301,-2.2441009,"Johnludds","UK","GB"
4.5980772,-74.0761028,"juvaniaguirre","Colombia","CO"
38.7077507,-9.1365919,"G_Waddington","Portugal","PT"
-33.8548157,151.2164539,"blotography","Australia","AU"
7.9805778,-72.097576,"superjg26","Venezuela","VE"
-34.5901045,-58.4667675071926,"SurferRosa1203","Argentina","AR"
22.3511148,78.6677428,"DeccanChronicle","<U+092D><U+093E><U+0930><U+0924>","IN"
6.4550575,3.3941795,"zaltuzzo","Nigeria","NG"
-12.285251,-41.9294776,"demzayat","Brasil","BR"
48.150058,11.5321102,"potke18","Deutschland","DE"
40.7902778,-73.9597222,"SilSterinPensel","United States of America","US"
-17.0568696,-64.9912286,"evoespueblo","Bolivia","BO"
41.3828939,2.1774322,"MattSevely","España","ES"
35.6681712,10.8926932,"nizarus","<U+062A><U+0648><U+0646><U+0633>","TN"
-0.2201641,-78.5123274,"ConsultaFamili","Ecuador","EC"
22.3511148,78.6677428,"OneindiaBengali","<U+092D><U+093E><U+0930><U+0924>","IN"
53.45733965,-2.22695880505223,"league_sx","UK","GB"
43.5278137,3.9315347,"NoBruTeam","France","FR"
43.6044622,1.4442469,"Apamjohnson","France","FR"
4.6726615,-74.0581744671382,"andersonc72","Colombia","CO"
54.7023545,-3.2765753,"ShoutOut_Radio","UK","GB"
4.5980772,-74.0761028,"gshernandeza","Colombia","CO"
19.1334321,72.8882172,"mangesh09510280","<U+092D><U+093E><U+0930><U+0924>","IN"
43.4592361,3.4701242,"Nader_Bennour","France","FR"
28.6517178,77.2219388,"SukhwantBasra","<U+092D><U+093E><U+0930><U+0924>","IN"
64.6863136,97.7453061,"OrchidsDark","<U+0420><U+0424>","RU"
25.2627163,51.5377702,"GulfTimes_QATAR","<U+200F><U+0642><U+0637><U+0631><U+200E>","QA"
-34.9059039,-56.1913569,"LiberNan","Uruguay","UY"
51.5073219,-0.1276474,"Belgraviacentre","UK","GB"
46.603354,1.8883335,"Mr_KinG_Ceo","France","FR"
25.0375198,121.5636796,"seki520","<U+81FA><U+7063>","TW"
54.4874141,-0.6155111,"KevinHo98285195","UK","GB"
-32.9822162,27.9047348,"kevinwineSW19","South Africa","ZA"
4.5980772,-74.0761028,"Jhonzziipp","Colombia","CO"
40.0028028,-4.003104,"AlmuuReyees","España","ES"
-33.741667,18.975,"PaarlSAfrica","South Africa","ZA"
28.0000272,2.9999825,"aljamaheerdz","<U+2D4D><U+2D63><U+2D63><U+2D30><U+2D62><U+2D3B><U+2D54> <U+0627><U+0644><U+062C><U+0632><U+0627><U+0626><U+0631>","DZ"
8.09558835,4.41296180365728,"adeniyiokoya","Nigeria","NG"
18.2164282,42.5043596,"Moh_assiri","<U+0627><U+0644><U+0633><U+0639><U+0648><U+062F><U+064A><U+0629>","SA"
42.6384261,12.674297,"gis_sa","Italia","IT"
-28.8166236,24.991639,"Paul24worldwide","South Africa","ZA"
43.3696644,130.4369104,"_Sivan_YoonHan","<U+4E2D><U+56FD>","CN"
45.4384958,10.9924122,"spiegati","Italia","IT"
25.2856329,51.5264162,"kataraqatar","<U+200F><U+0642><U+0637><U+0631><U+200E>","QA"
5.4091179,-4.0422099,"arolove06","Côte d’Ivoire","CI"
54.7023545,-3.2765753,"YahooSportUK","UK","GB"
48.866815,2.3010201,"IGFrance","France","FR"
41.3828939,2.1774322,"javirroyo","España","ES"
7.1114611,-73.1172869,"El_Oidor","Colombia","CO"
50.7531232,3.1209016,"CoteMeteo","France","FR"
48.6443057,2.7537863,"AishaOum","France","FR"
21.5822247,39.1640396,"saud77094995","<U+0627><U+0644><U+0633><U+0639><U+0648><U+062F><U+064A><U+0629>","SA"
43.6582559,-79.4004918,"GONnamoko","Canada","CA"
53.45733965,-2.22695880505223,"LanreHkn","UK","GB"
7.9897371,-5.5679458,"fleekybby","Côte d’Ivoire","CI"
43.26983495,5.39591166409922,"Payetinhoo","France","FR"
33.8439408,9.400138,"OmranCartoonist","<U+062A><U+0648><U+0646><U+0633>","TN"
25.2859603,81.896732069544,"Avinash82110010","<U+092D><U+093E><U+0930><U+0924>","IN"
51.6604863,-0.2706506,"FootyFan711","UK","GB"
25.2232283,55.1594933008754,"SpeculativePod","<U+0627><U+0644><U+0625><U+0645><U+0627><U+0631><U+0627><U+062A> <U+0627><U+0644><U+0639><U+0631><U+0628><U+064A><U+0629> <U+0627><U+0644><U+0645><U+062A><U+062D><U+062F><U+0629>","AE"
10.8677845,-60.9821067,"yannickquintal","Trinidad and Tobago","TT"
43.311983,-1.897806,"auxtin3","España","ES"
6.4550575,3.3941795,"olatunjitosin8","Nigeria","NG"
53.0535042,-2.302504,"1StevieKilner","UK","GB"
43.7159395,10.4018624,"binowsky","Italia","IT"
48.8566101,2.3514992,"Nofi_officiel","France","FR"
38.9953683,21.9877132,"MariaTsevdos","<U+0395><U+03BB><U+03BB><U+03AC>da","GR"
43.6044622,1.4442469,"Ladepechesports","France","FR"
38.7077507,-9.1365919,"iTechWords","Portugal","PT"
42.4646033,14.2139199,"Matte0Silvestri","Italia","IT"
2.8894434,-73.783892,"HZellmis","Colombia","CO"
46.603354,1.8883335,"Bantliam","France","FR"
53.5964097,-2.2904086,"empsolrecruit","UK","GB"
43.8222157,17.6896937,"Its_Dolypizo","BiH / <U+0411><U+0438><U+0425>","BA"
-23.5506507,-46.6333824,"Carlos_Henriqu3","Brasil","BR"
52.2379891,5.53460738161551,"jansen_mila","Nederland","NL"
51.5073219,-0.1276474,"casilda1","UK","GB"
59.938732,30.316229,"iambolar","<U+0420><U+0424>","RU"
51.5457996,-0.1027127,"georgetsiokos1","UK","GB"
17.7356214,9.3238432,"kvngArhlex","Niger","NE"
9.0980752,7.4824456,"omaakatugba","Nigeria","NG"
2.8894434,-73.783892,"camgthXD","Colombia","CO"
54.8611124,-1.43201801730217,"CarmenSpinoza11","UK","GB"
-8.0641931,-34.8781517,"vicctortavares","Brasil","BR"
53.4332616,-2.9640891,"wisnawisnuu","UK","GB"
5.4091179,-4.0422099,"SoumatBerte","Côte d’Ivoire","CI"
47.3723957,8.5423216,"abseitsch","Schweiz/Suisse/Svizzera/Svizra","CH"
45.7578137,4.8320114,"souris69","France","FR"
49.4871968,31.2718321,"bahisortami6","<U+0423><U+043A><U+0440><U+0430><U+0457><U+043D><U+0430>","UA"
45.4667971,9.1904984,"tancredipalmeri","Italia","IT"
25.2232283,55.1594933008754,"Top__Tips_","<U+0627><U+0644><U+0625><U+0645><U+0627><U+0631><U+0627><U+062A> <U+0627><U+0644><U+0639><U+0631><U+0628><U+064A><U+0629> <U+0627><U+0644><U+0645><U+062A><U+062D><U+062F><U+0629>","AE"
9.6000359,7.9999721,"247ngnewsupdate","Nigeria","NG"
11.08665565,-73.8803519997939,"Zonarosasm","Colombia","CO"
6.4550575,3.3941795,"productionalodm","Nigeria","NG"
4.628815,-74.0667233,"Ozkar527","Colombia","CO"
11.01184845,-74.8086460830206,"carnavalxsiempr","Colombia","CO"
35.266906,-119.0567707,"DJPeanutwao","United States of America","US"
51.5073219,-0.1276474,"Diggasoca","UK","GB"
49.4871968,31.2718321,"bilzerianbettin","<U+0423><U+043A><U+0440><U+0430><U+0457><U+043D><U+0430>","UA"
51.5073219,-0.1276474,"activative","UK","GB"
-1.2832533,36.8172449,"Gmwelu","Kenya","KE"
-0.2117289,-78.5080055,"SonWahanah","Ecuador","EC"
47.2208,-122.4092,"Oreofeloju","United States of America","US"
35.7879371,139.903177,"0601_tun","<U+65E5><U+672C>","JP"
43.2961743,5.3699525,"Enzooss06","France","FR"
49.115635,10.754535,"PrashanthNaiduK","Deutschland","DE"
40.0028028,-4.003104,"jackiedeburca","España","ES"
48.8566101,2.3514992,"omisapro","France","FR"
55.3500003,23.7499997,"Ingrida11065959","Lietuva","LT"
5.5279556,5.7545334,"ChineduIkedieze","Nigeria","NG"
39.8701066,16.530667,"ingrogna","Italia","IT"
42.13606145,-0.0298026627191655,"AnaBandrs1","España","ES"
10.3529588,76.5119752,"FanportOfficial","<U+092D><U+093E><U+0930><U+0924>","IN"
44.8178131,20.4568974,"ForzaKizil","<U+0421><U+0440><U+0431><U+0438><U+0458><U+0430>","RS"
40.7306458,-73.9866136,"themoosemethod","United States of America","US"
9.6000359,7.9999721,"meksclint","Nigeria","NG"
4.7676576,7.0188527,"wizdapilla1","Nigeria","NG"
52.5170365,13.3888599,"GresselGustav","Deutschland","DE"
4.5980772,-74.0761028,"CaycedoConY","Colombia","CO"
42.6384261,12.674297,"Italian86045585","Italia","IT"
43.0326132,-8.8096412,"yzkahchimir","España","ES"
22.3511148,78.6677428,"DeccanHerald","<U+092D><U+093E><U+0930><U+0924>","IN"
-0.7166,36.4332999,"ALICEAMBITIOUS","Kenya","KE"
-3.427534,36.7085848184899,"shoes_shangu","Tanzania","TZ"
58.7523778,25.3319078,"hugoDriverTNT","Eesti","EE"
-4.7993356,114.5632032,"Galang_Ew","Indonesia","ID"
27.9658533,-82.8001026,"federicoalves","United States of America","US"
-3.1316333,-59.9825041,"dinhoneto13","Brasil","BR"
7.3777462,3.8972497,"cristi_latest","Nigeria","NG"
54.7023545,-3.2765753,"yvette180","UK","GB"
-1.2832533,36.8172449,"inoorotv","Kenya","KE"
13.0801721,80.2838331,"SamayamTamil","<U+092D><U+093E><U+0930><U+0924>","IN"
40.3081807,-3.7302679,"isabaren","España","ES"
22.3511148,78.6677428,"ndtv","<U+092D><U+093E><U+0930><U+0924>","IN"
28.6141793,77.2022662,"Sports_NDTV","<U+092D><U+093E><U+0930><U+0924>","IN"
-23.5506507,-46.6333824,"nivaldoprieto","Brasil","BR"
50.9025349,-1.404189,"priyeshunnadkat","UK","GB"
40.9699889,-77.7278831,"geologochacin","United States of America","US"
10.6115886,122.535946336233,"MKhalaifa","Philippines","PH"
6.4550575,3.3941795,"ridbay","Nigeria","NG"
-22.9110137,-43.2093727,"Cariocas_FC","Brasil","BR"
40.631006,14.416037,"CA10TM","Italia","IT"
33.8439408,9.400138,"fouratsakka","<U+062A><U+0648><U+0646><U+0633>","TN"
41.219631,16.067466,"GiovanniDestino","Italia","IT"
40.8359336,14.2487826,"SN24it","Italia","IT"
51.5073219,-0.1276474,"clustermarket","UK","GB"
52.6361398,-1.1330789,"PeepulEnt","UK","GB"
47.3723957,8.5423216,"MarcLindt","Schweiz/Suisse/Svizzera/Svizra","CH"
-22.9839557,-43.2022163,"vitor_silveira","Brasil","BR"
9.0643305,7.4892974,"timothyolusanya","Nigeria","NG"
52.24115585,1.0466542299927,"SuffolkLibrary","UK","GB"
52.0831636,0.436695043961847,"HaverhilLibrary","UK","GB"
10.3995334,-71.4609626,"kaleb_vzla","Venezuela","VE"
45.0677551,7.6824892,"alex31113","Italia","IT"
45.4400499,10.9932788,"chiccopub","Italia","IT"
50.0596288,14.446459273258,"faerbinho","Cesko","CZ"
-1.036648,37.077523,"KarehuDaniel","Kenya","KE"
36.7213028,-4.4216366,"sosfactory","España","ES"
6.4550575,3.3941795,"DijaySO","Nigeria","NG"
-10.3333333,-53.2,"AguiarEdimarla","Brasil","BR"
4.6617449,-74.0678010056575,"jimmypuentes7","Colombia","CO"
52.3745403,4.89797550561798,"MarioMelchiot","Nederland","NL"
9.624388,-73.2125095,"audiomaximo","Colombia","CO"
39.2169525,9.1128513,"PisuDavi","Italia","IT"
46.0634632,13.2358377,"FebbreUdinese","Italia","IT"
2.8894434,-73.783892,"Locacienta","Colombia","CO"
46.603354,1.8883335,"luckybetpro","France","FR"
41.2889924,36.3294459,"BulutKatar55","Türkiye","TR"
52.290713,-1.780685,"phil_duggan","UK","GB"
6.4550575,3.3941795,"Carrotngr","Nigeria","NG"
8.4963657,4.5480484,"timmy_obed","Nigeria","NG"
31.55176955,-110.245322648446,"BaffourGH","United States of America","US"
9.0643305,7.4892974,"Gkellymedia","Nigeria","NG"
25.2232283,55.1594933008754,"Boss_Design","<U+0627><U+0644><U+0625><U+0645><U+0627><U+0631><U+0627><U+062A> <U+0627><U+0644><U+0639><U+0631><U+0628><U+064A><U+0629> <U+0627><U+0644><U+0645><U+062A><U+062D><U+062F><U+0629>","AE"
42.6875966,-2.9507583,"PedroG_Carmona","España","ES"
51.518189,-0.1070606,"martinxo","UK","GB"
45.1860043,9.1546375,"GliAutogol","Italia","IT"
9.6000359,7.9999721,"ZetaNigeria","Nigeria","NG"
46.0050102,8.9520281,"RSIonline","Schweiz/Suisse/Svizzera/Svizra","CH"
41.3222312,69.2454152,"marvyndickinson","O<U+02BB>zbekiston","UZ"
40.7306458,-73.9866136,"ClementeLisi","United States of America","US"
38.6700009,-9.1599354627121,"RespirarFutebol","Portugal","PT"
25.0750095,55.1887608818332,"711Realmadrid","<U+0627><U+0644><U+0625><U+0645><U+0627><U+0631><U+0627><U+062A> <U+0627><U+0644><U+0639><U+0631><U+0628><U+064A><U+0629> <U+0627><U+0644><U+0645><U+062A><U+062D><U+062F><U+0629>","AE"
44.9216157,10.2291872,"ilnegoziatore75","Italia","IT"
-5.6753455,-76.6390925,"hangerworldit","Perú","PE"
40.7902778,-73.9597222,"Mehreta","United States of America","US"
52.7954791,-0.540240286617432,"4dru1d","UK","GB"
22.3511148,78.6677428,"vijuinnaite","<U+092D><U+093E><U+0930><U+0924>","IN"
-23.5506507,-46.6333824,"Ricofausto1984","Brasil","BR"
46.0373052,8.953266,"RSIsport","Schweiz/Suisse/Svizzera/Svizra","CH"
42.6384261,12.674297,"Blackholesound","Italia","IT"
32.9407496,52.9471344,"badrishariff","<U+200F><U+0627><U+06CC><U+0631><U+0627><U+0646><U+200E>","IR"
53.3497645,-6.2602732,"StarTranslation","Ireland","IE"
-1.2832533,36.8172449,"KamemeTvKenya","Kenya","KE"
51.262826,-1.0861976,"SaintKate80","UK","GB"
48.8566101,2.3514992,"Llorna7","France","FR"
45.4667971,9.1904984,"SOCIALnetbest","Italia","IT"
48.6443057,2.7537863,"MeilleurBosman","France","FR"
28.6141793,77.2022662,"toisports","<U+092D><U+093E><U+0930><U+0924>","IN"
-34.9964963,-64.9672817,"elfavro9","Argentina","AR"
25.0750095,55.1887608818332,"lilianetannoury","<U+0627><U+0644><U+0625><U+0645><U+0627><U+0631><U+0627><U+062A> <U+0627><U+0644><U+0639><U+0631><U+0628><U+064A><U+0629> <U+0627><U+0644><U+0645><U+062A><U+062D><U+062F><U+0629>","AE"
55.7507178,37.6176606,"MKholomeev","<U+0420><U+0424>","RU"
45.775426,-74.013176,"pubcool","Canada","CA"
4.5980772,-74.0761028,"carlosramirez88","Colombia","CO"
42.6384261,12.674297,"I_Repubblica","Italia","IT"
52.0977181,19.0258159,"CyberSilentVPN","RP","PL"
40.4167047,-3.7035825,"JacoboCabanas","España","ES"
-22.5266308,-42.9790687,"flsmaia","Brasil","BR"
25.2232283,55.1594933008754,"TifoFootball_","<U+0627><U+0644><U+0625><U+0645><U+0627><U+0631><U+0627><U+062A> <U+0627><U+0644><U+0639><U+0631><U+0628><U+064A><U+0629> <U+0627><U+0644><U+0645><U+062A><U+062D><U+062F><U+0629>","AE"
47.3723957,8.5423216,"NMFlemzy","Schweiz/Suisse/Svizzera/Svizra","CH"
-35.2975906,149.1012676,"oznavyhistorian","Australia","AU"
5.9936938,10.438756,"anilizer_34","Cameroun","CM"
37.3122991,13.57465,"Amil_developer","Italia","IT"
35.3396115,33.3194082,"ozgurgezgin","<U+039A><U+03CD>p<U+03C1><U+03BF><U+03C2> - Kibris","CY"
41.0096334,28.9651646,"socialmgzn","Türkiye","TR"
51.5073219,-0.1276474,"proximityLDN","UK","GB"
25.7793634,55.9346329,"DINGERLEYDELL1","<U+0627><U+0644><U+0625><U+0645><U+0627><U+0631><U+0627><U+062A> <U+0627><U+0644><U+0639><U+0631><U+0628><U+064A><U+0629> <U+0627><U+0644><U+0645><U+062A><U+062D><U+062F><U+0629>","AE"
52.7954791,-0.540240286617432,"RedgraveRohan","UK","GB"
9.6000359,7.9999721,"DStvNg","Nigeria","NG"
52.7954791,-0.540240286617432,"Trigs14","UK","GB"
-34.9964963,-64.9672817,"radioecos","Argentina","AR"
-15.7934036,-47.8823172,"FernandoRegoBar","Brasil","BR"
51.4538022,-2.5972985,"BenSteers","UK","GB"
-22.5266308,-42.9790687,"astirasdocaos","Brasil","BR"
4.5980772,-74.0761028,"dalejandrobm","Colombia","CO"
-10.3333333,-53.2,"mano97fm","Brasil","BR"
9.6000359,7.9999721,"BrutNigeria","Nigeria","NG"
3.752828,8.780061,"Pidjiro","Guinea Ecuatorial","GQ"
35.3826185,36.4492355,"9995salman","<U+0633><U+0648><U+0631><U+064A><U+0627>","SY"
28.6141793,77.2022662,"poetbelly","<U+092D><U+093E><U+0930><U+0924>","IN"
34.5666725,132.753565,"Batosan_apple","<U+65E5><U+672C>","JP"
39.970593,-74.710629,"Callum_Beirne","United States of America","US"
44.749948,8.527846,"FredAllaJuve","Italia","IT"
9.624388,-73.2125095,"HotHotelDeals1","Colombia","CO"
