"lat","long","screenName"
40.2109801,-8.4292057,"trocadabola"
8.3096067,-81.3066246,"KSAPTY"
46.2051192,5.2250324,"LARELIA2407"
6.4550575,3.3941795,"harryy_011"
15.3004543,74.0855134,"kamatgoa"
22.3511148,78.6677428,"BSNLCorporate"
25.2017152,55.1542459,"elpoetamajestic"
6.4550575,3.3941795,"dark_kvng"
9.0643305,7.4892974,"mindkraft"
19.1334321,72.8882172,"Ethinos"
-30.9034869,-55.5091113,"aula365"
45.7578137,4.8320114,"Kr0cky69"
19.4326009,-99.1333416,"Dparleymexico"
25.22803095,55.17332793087,"Dohastadiumplus"
6.2388416,80.0542508,"Mr_rammuthu"
46.2017559,6.1466014,"500pxrtg"
41.0799898,-85.1386015,"karenfadus"
50.8465573,4.351697,"TWadin"
4.6617449,-74.0678010056575,"kennymilano"
17.3450946,43.1517127,"alhazmi_com"
-9.6476843,-35.7339264,"carfelipe"
53.7907262,-2.2439196,"PrairieSport"
19.1334321,72.8882172,"DreadIndian"
26.2540493,29.2675469,"mahnegm"
41.3874344,2.16903130986842,"e3_barca"
41.3828939,2.1774322,"esport3"
-22.9110137,-43.2093727,"LuciaVict0ria"
-24.5177239,-51.6685729,"vivikkkkj"
-37.9196946,-62.1280162,"Canal9convos"
13.8000382,-88.9140683,"E_Espinoza21"
23.7593572,90.3788136,"neelima_ela"
51.4538022,-2.5972985,"AnitchkaNE"
41.8933203,12.4829321,"ClaudiaBruno00"
43.6711721,-79.3758814,"LustyButters"
4.5980772,-74.0761028,"LorenaPardo"
42.6384261,12.674297,"Il_TerzoUomo"
9.6000359,7.9999721,"adetife_"
-25.9307699,28.012252,"Ctenlee"
54.8611124,-1.43201801730217,"lorevicente"
-10.3333333,-53.2,"rankeador"
21.14133975,-100.070929691885,"acontecendoaqui"
48.8413634,2.25306931623782,"_kimpembista"
1.4419683,38.4313975,"raccemaurice"
50.6305089,3.0706414,"MavingaMakanzu"
53.4310417,-1.355187,"getleansocial"
19.4326009,-99.1333416,"Vidishh"
12.3724928,-84.8700308,"Oseda07"
-18.5711894,-41.2339862,"ianroberth7"
51.4538022,-2.5972985,"GarryBussell"
19.4326009,-99.1333416,"fanbolero"
51.46426255,-0.651714721140142,"afcsean89"
-26.235278,28.37,"CalvinRachoene5"
-10.3333333,-53.2,"CleibsonF"
52.8228134,-1.4283564,"WorldPrank4"
50.7979739,3.762778,"SimoneHanneke"
42.6384261,12.674297,"SportEconomy"
-22.1635605,-42.6633545,"pintandofelicid"
45.6209,9.768893,"v4lentinatweets"
28.4012536,36.567049,"shs142"
6.9349969,79.853845,"fd240094ca8149e"
40.033265,-7.8896263,"zerozeropt"
25.40704,49.5959025,"malmanhool"
25.7742658,-80.1936589,"Music_Miami"
50.74467035,-1.85798090318094,"gadge33"
52.08653175,5.24900804050379,"Netherlands1974"
-34.57515945,-58.4854764481329,"ferrunning3021"
52.0977181,19.0258159,"igolpl"
42.6384261,12.674297,"ThatsLevioh"
43.9258812,10.201791,"UgoBaroni"
-33.8492579,151.2128083,"aldocomi"
-21.3377636,-65.8060017,"YanezApostillas"
51.9565337,8.29369006293168,"ejgp_"
2.0000003,15.9999997,"djALjahZEEra"
41.8933203,12.4829321,"CorSport"
42.6384261,12.674297,"tuttosport"
-1.2832533,36.8172449,"birithuson"
7.1114611,-73.1172869,"Juanjosemkxx"
52.628606,1.29227,"Writefreexpress"
25.9481487,-80.3169953,"cerati9"
4.990237,7.99743991133195,"promiseetim25"
45.0677551,7.6824892,"FraSulas"
-34.8802891,-56.1587239,"csiebeluy"
14.693425,-17.447938,"MazDugov"
49.21230655,-2.12559995964288,"ls_Jersey1"
19.4326009,-99.1333416,"dportenis"
25.2232283,55.1594933008754,"seaimages"
18.5345373,-72.4092495,"domminac3"
25.8470631,-100.3934347,"_brendagzaa"
16.404328,120.597126750107,"NettieSthlm"
0.3177137,32.5813539,"WalasDavid"
-33.4377968,-70.6504451,"RafaAlvCc"
-25.863611,25.658611,"Breezy_Multi_M"
31.1728192,-7.3366043,"meeril_89"
43.6112422,3.8767337,"morelYlone"
36.7213028,-4.4216366,"TorresIMG"
4.5980772,-74.0761028,"MargaritaBernal"
7.1114611,-73.1172869,"Garcia_Breynner"
-30.0324999,-51.2303767,"claudinhars75"
40.8359336,14.2487826,"canale21"
19.32055625,-99.1517010707765,"jfcalderon"
51.5073219,-0.1276474,"kerziouk"
9.08251365,-83.2465025101169,"terribleortiz"
53.198627,50.113987,"LuisAndresHenao"
54.0099825,-1.462186,"hopey550"
33.96689355,-6.84266275862037,"AsFaRabatcom"
39.7980588,-88.5272636,"lynolchidziva"
6.4550575,3.3941795,"JerseysOfficial"
1.4419683,38.4313975,"RobeezyD"
4.5980772,-74.0761028,"chejo1804"
42.8804219,-8.5458608,"NosTelevision"
26.2295234,50.5915476,"salman591"
44.5513342,10.935016,"FabioMaffettone"
39.7837304,-100.4458825,"Sindy_KBA"
51.5073219,-0.1276474,"Fane_Mensah"
40.8359336,14.2487826,"Time4Stream"
54.4747553,55.9784582,"_RUSSIE_"
-32.8755548,-56.0201525,"SUAREZ_SZN"
53.4791301,-2.2441009,"PaleGreenBand"
41.86352,12.5576041,"UNIBET_IT"
-34.6143033,-58.5258108049808,"nlopedebarrios"
25.7742658,-80.1936589,"SemanarioArg"
54.7023545,-3.2765753,"MCJTSubs"
-23.5324859,-46.7916801,"AparecidoAlmei5"
9.6000359,7.9999721,"segjoh"
51.5073219,-0.1276474,"austinobasi"
47.4983815,19.0404707,"digisport_hu"
35.8812346,14.5178677,"Yobetit"
42.61946,-7.863112,"o_sanma"
29.4246002,-98.4951405,"WF_writerEM"
18.833333,-98,"peyoneil"
6.4550575,3.3941795,"boss_besh"
52.865196,-7.9794599,"carlmcevoy1"
32.5010188,-116.9646629,"Alanmacias99FAM"
23.7766026,90.3829896,"Dream_MSA"
5.8101532,0.0995242,"OhemaaPearl2"
-25.9363439,28.0813105,"Dimakat35453346"
-34.9059039,-56.1913569,"elnenesilva"
48.9636566,2.5347541,"DcrSirou"
40.8762106,-74.0298621,"PochoMartinez24"
51.5073219,-0.1276474,"lexy_flow"
9.0643305,7.4892974,"estherclimate"
51.5644477,4.75122967848989,"Cosmopolitka"
22.5000485,-100.0000375,"jmiguelcm"
6.4550575,3.3941795,"chinaydo"
-27.4997483,-58.8170557,"shitshitshitshx"
4.5980772,-74.0761028,"jrgomex"
4.6617449,-74.0678010056575,"oscarespinosa82"
-6.1753942,106.827183,"nannasmuda"
6.4550575,3.3941795,"okehjp"
40.7306458,-73.9866136,"hombreslounge1"
4.6617449,-74.0678010056575,"paisitadeo"
4.5980772,-74.0761028,"The_Soul_King"
40.6403167,22.9352716,"elenischool"
-32.8755548,-56.0201525,"Soy_AGM"
6.4550575,3.3941795,"iamhismahilll"
-34.9059039,-56.1913569,"treceacero"
7.1114611,-73.1172869,"MiguelPorty"
51.4043548,-3.2690216,"reddevil1975"
30.048819,31.243666,"2eeeetch"
22.5677459,88.3476023,"Deepmin38317550"
21.4209763,39.8270873,"i3shg_"
30.048819,31.243666,"abdalahelraggal"
40.0028028,-4.003104,"TorneoApuestas"
2.8894434,-73.783892,"ColombiaOscura"
42.61946,-7.863112,"rojaenelcolacao"
30.8703881,-92.007126,"NerissaaEmy"
-31.7613365,-71.3187697,"Danniimoreno"
48.8661652,20.3598439,"GinoInvesting"
40.7399963,-2.50593002588473,"Rogertnk"
52.7954791,-0.540240286617432,"h_trusswell"
42.6384261,12.674297,"PicklineNews"
50.5982618,3.2931148,"DeconinckFr"
42.6384261,12.674297,"mrg_75"
9.08251365,-83.2465025101169,"e_deportivas"
-0.2201641,-78.5123274,"365DMG"
2.8894434,-73.783892,"ximenitares"
-4.8339574,-42.1739786,"italloramon80"
41.6521328,-4.728562,"migruizruiz"
-42.9165061,-71.3363881,"Rincon_DeFutbol"
44.6458885,10.9255707,"figurinepanini"
19.4326009,-99.1333416,"GattoSpaghetti"
16.4263803,-93.1404794,"andycasnava"
42.6384261,12.674297,"skillandbet"
-0.2201641,-78.5123274,"liguistas"
-34.9059039,-56.1913569,"elchacalok"
48.8566101,2.3514992,"LukeShrago"
-21.9549806,-49.0232348,"rudylanducci"
45.431977,9.989265,"bdlbottega"
19.4203871,-99.1728472,"jcrojo"
51.5073219,-0.1276474,"anilbhanot"
14.6565739,120.9941511,"capra9479"
43.0761456,-89.3227110468076,"ChangoWith"
41.6009563,-85.7907465,"JuanjoTRX"
18.3953591,-66.094888,"AlexM794"
-42.9165061,-71.3363881,"AnaNel10"
48.9385489,2.4631476,"fahed__hm"
45.5643442,17.0118954,"AnicaTurda"
2.8894434,-73.783892,"BrianTorresRock"
48.9542249,2.3025347463654,"slimanetirera"
8.0018709,-66.1109318,"megalatina979fm"
6.4550575,3.3941795,"_Teewalters"
6.5960605,3.340787,"4lconnect"
41.2675307,-8.0690985,"SafadAllz"
19.4053637,-99.1498637,"Gaby_Coceres"
-3.3424178,-60.6775337,"ismamaressaog"
30.0659254,31.2163854,"Donvicarleone"
-16.7608792,-49.2302087,"suarezchacon_9"
-25.9969151,28.6747707,"MufasaUnderdog1"
28.6141793,77.2022662,"sheena2309"
-23.5506507,-46.6333824,"mornietari"
42.6384261,12.674297,"MondoSportivoIT"
-23.3112878,-51.1595023,"IzauraDemari"
52.0565724,-0.8501016,"paulwithe"
4.6617449,-74.0678010056575,"Oficial_LEOCS"
-23.523683,-46.5437815,"kawaharu1"
10.3825318,7.8533226,"khalifa_dalhat"
-23.1897822,-49.3840493,"ricardoguidio"
54.898614,-1.528827,"JOHNMILLS72"
6.4550575,3.3941795,"sami_bam"
-34.9964963,-64.9672817,"PFulbo"
4.81804785,-75.6888617199333,"VinosDeAmerica"
6.4550575,3.3941795,"Max1023FM"
45.4667971,9.1904984,"Eleonora_Boi"
14.6417889,-90.5132239,"_ThePhenomenal"
29.33357555,48.0571186896455,"yasserdanga"
41.8933203,12.4829321,"CalcioArg"
11.0552572,-85.2768558,"embaven_belice"
-0.2201641,-78.5123274,"CrisNapGom"
51.5073219,-0.1276474,"J355owen"
51.3957695,-0.448532,"PeterSainsbury"
-34.9059039,-56.1913569,"jumican"
-2.4333,40.5333,"BusaneHlomuka"
-27.4221702,-55.9350095,"tdtlatinoameric"
48.8413634,2.25306931623782,"PSG24hours"
51.5073219,-0.1276474,"juliansheasport"
23.7593572,90.3788136,"surzo_uptm"
40.6501038,-73.9495823,"FultonAleHouse"
25.0750095,55.1887608818332,"Mohd_khalifa5"
-24.7761086,134.755,"yakuubu11"
41.8933203,12.4829321,"marcoluci1"
36.2033361,-115.0552554,"Aywenger"
8.4963657,4.5480484,"MyHumbleSelff"
43.7009358,7.2683912,"jpaulclaustres"
9.6000359,7.9999721,"cybergeak"
41.2675307,-8.0690985,"helloneagle"
19.6666671,-88.5000001,"SalgadoErik"
-16.0686394,-47.9764907,"MarianaSued"
45.4667971,9.1904984,"GioPaini23"
51.41080285,-0.188097730556762,"WrittenMirror"
50.6305089,3.0706414,"aucarrefour59"
33.5091215,-111.8992365,"everzonian"
2.8894434,-73.783892,"RukissReyna"
57.1482429,-2.0928095,"Keithyrobbo"
-33.8548157,151.2164539,"marcelatobon"
-23.5506507,-46.6333824,"lipebernardii"
2.8894434,-73.783892,"camilocabezas07"
-12.9822499,-38.4812772,"stylinson114"
42.6384261,12.674297,"Gazzetta_it"
45.4667971,9.1904984,"NicoleGomena"
1.2904753,103.8520359,"HarshVardhan_Sh"
21.4209763,39.8270873,"jesus_in_islam"
54.8611124,-1.43201801730217,"luckiano_"
51.2715316,-0.341452351129091,"BradleyCLWest"
-18.865186,-48.265278,"kamilaa27_"
10.3529588,76.5119752,"asianetnewstv"
-23.1681782,24.5928742,"Stobene_Stiles"
25.68976,-80.280843,"Miami_Flamingo"
17,-96.5,"elcaborotativo"
-33.6310779,-70.7592008,"bacarucci"
-10.3333333,-53.2,"_marinaperes_"
50.0619474,19.9368564,"xouted"
11.544634,-72.9069784,"andres32132"
-7.510234,-34.9154114,"lucianoamorim94"
45.8080945,13.5310806,"themassj"
36.7014631,-118.7559974,"rose_anap"
8.9714493,-79.5341802,"Adasilva507"
55.7507178,37.6176606,"chavez75745770"
32.5812455,-85.7491225,"Luchitocharris"
52.19079405,5.3512663166522,"voshans"
31.8017703,-106.9927822,"Alejo1Potrillo"
6.4550575,3.3941795,"GidiFeed"
-28.8166236,24.991639,"dailymaverick"
-1.2832533,36.8172449,"AleksGee"
-34.9964963,-64.9672817,"cambalachecoope"
-22.9110137,-43.2093727,"Chagas_Kaylane"
-23.5506507,-46.6333824,"hstaned"
55.4776435,-2.5553768,"gmkelly1979"
37.47427625,14.1385351189452,"GoalSicilia"
29.7589382,-95.3676974,"NetherlandsTX"
32.6200699,-115.4440698,"Eddy__Morales"
-22.9110137,-43.2093727,"MetroJornal_RJ"
-37.4087085,-58.1356841,"sanLs"
17.9712148,-76.7928128,"CassiusWatson"
-1.2832533,36.8172449,"maxlanmadokaa"
34.6968642,139.4049033,"S27257336"
46.1939009,-83.0110297,"katyatchoubar"
18.4287486,-66.1569582824405,"gheovannav"
-23.5506507,-46.6333824,"BazaarBR"
52.7954791,-0.540240286617432,"JuliaPaqueta11"
38.8949549,-77.0366456,"finneyeric"
36.140807,-5.3541295,"ArthurBlaugrana"
43.1561681,-75.8449946,"johnny41391"
45.4667971,9.1904984,"Primaonline"
9.0643305,7.4892974,"_Misterlouis"
41.9960924,21.4316495,"klipkje"
37.7767817,-122.4167923,"eaipredo"
-18.865186,-48.265278,"Nanda25Vianna"
39.7837304,-100.4458825,"MiffyOfficialUS"
42.6384261,12.674297,"redarmyitaly"
-23.5838463,-46.672325,"newdoghamburger"
25.4025941,55.4429486,"israa_ad"
54.5039299,23.9379023,"patatahvoladora"
-26.3689804,27.349464,"keoagile23"
-22.9110137,-43.2093727,"vaz_wall"
-42.9165061,-71.3363881,"sandrufloress"
19.4326009,-99.1333416,"NorthHunters"
-15.7934036,-47.8823172,"AndersonRodr17"
20.7598594,-77.860272,"porteexpo1"
50.1106444,8.6820917,"Jayyorkman"
43.0361995,-70.8328322,"BettingTipsMan"
51.5073219,-0.1276474,"RealSport500"
33.8966012,35.5314566,"Annahar"
40.8718291,9.6175397,"WikiFanta"
48.8566101,2.3514992,"PhDavidMtb"
18.547327,-72.3395928,"TICKETmaghaiti"
51.5073219,-0.1276474,"HousingHandUK"
19.32055625,-99.1517010707765,"AnayaSeconds"
-10.3333333,-53.2,"poxaedwards"
45.813177,15.977048,"24sata_HR"
54.7023545,-3.2765753,"TheCoverDen"
-23.5506507,-46.6333824,"iamlizazz"
30.048819,31.243666,"mostafaelruoby"
50.8465573,4.351697,"FredericDeCock"
40.4167047,-3.7035825,"RockSportRadio"
41.3884524,2.12171825426451,"MalCulerisme"
59.6749712,14.5208584,"NeoBolshevik"
51.46426255,-0.651714721140142,"Rugby_Ash21"
59.6749712,14.5208584,"dhjo"
25.6242618,42.3528328,"klllh1999"
40.4167047,-3.7035825,"ImagoSport"
-12.8863598,-65.320004,"ali_rm12"
38.7926342,-9.1826701,"hugocmartinsslb"
-1.24139975,36.7841127340471,"ogaabi_"
52.7589402,-1.9362042,"GazSportsBlog"
52.7589402,-1.9362042,"GazPodmorePT"
8.3096067,-81.3066246,"antoniolara2375"
33.0955793,44.1749775,"ERVEGOM"
22.52026785,113.930339073439,"Ganley_23"
48.8566101,2.3514992,"JeremyLne"
48.800368,2.2630292,"hamonjeanpaul"
41.3653134,15.6936756,"tino_conte"
41.4623447,15.5430624,"Voce_Bianconera"
48.8566101,2.3514992,"MaelTsns"
30.3824619,-81.5073118,"daddypoolsz"
4.8416028,6.8604088,"HarryTanen"
53.2789347,-2.9022507,"JadeyWalsh"
-23.5506507,-46.6333824,"wolfsfavela"
33.6882155,-86.5014044788996,"manoelastanley"
44.95704355,7.18908182790506,"micaela_tatiana"
37.0057958,-89.1772449,"hazem_salah8"
18.9218274,-99.2342282,"MiguelPantojaMD"
6.4550575,3.3941795,"tosemmy5"
46.603354,1.8883335,"SudRadio"
44.6458885,10.9255707,"Gianpi71asr"
48.8566101,2.3514992,"_Pywo"
53.4791301,-2.2441009,"dan_illustrator"
41.8492242,44.719326,"bribri097"
30.048819,31.243666,"bo_ozil11"
15.8656575,74.5261147,"bilgundi"
-1.2322834,36.9275102,"Musa_Ndirangu"
19.4326009,-99.1333416,"PalcoDebate"
48.477294,-89.201697,"queridarroba"
-10.3333333,-53.2,"itsmenandaa1"
47.2000338,13.199959,"DICH78"
48.8566101,2.3514992,"thesoccerblog1"
-20.4494839,-54.6081159,"andreluiscgms"
-34.3409331,-58.7670769,"MalvinasData"
-35.4271948,-71.6558934,"ricardomonterog"
40.0796319,-89.4339809,"lydiadzuly"
51.283714,37.53466,"DFilenko"
55.45435,65.321877,"ssu_64"
-23.5506507,-46.6333824,"alvaro_reisf"
37.3886303,-5.9953171,"alexjs_93"
54.7023545,-3.2765753,"BetOnAces"
28.7130755,-100.5558349,"chizar_fiction"
19.7027116,-101.1923818,"Yosoyelperi"
-10.3333333,-53.2,"GalaxyMessenger"
34.8082236,135.511831912755,"FerminFM"
8.2151249,3.5642897,"Deewhy009"
3.4319329,-76.5113048,"brayan_garzon"
-22.7573123,-47.1723149155691,"guil_ffreitas"
9.6000359,7.9999721,"SewuBem"
40.921611,14.189828,"TatySirio85"
41.2871196,13.2492009,"WutangLuca"
40.1212853,-3.8507812,"parronte"
64.5731537,11.5280364395482,"HUUULK93"
26.2540493,29.2675469,"mohamedelzawaw7"
39.5162234,-76.9382069,"akoji007"
40.4481498,-75.7471373,"Arinzay"
40.033265,-7.8896263,"MadaBarbosa51"
39.9215219,32.8537929,"sudemi06"
42.6384261,12.674297,"per4piedi"
19.4326009,-99.1333416,"ADOMINGUEZMURO"
-34.6850347,-58.4015485,"feernaann"
43.7283874,-79.34914879325,"TalkRugbyUnion"
30.6274843249982,104.036573933606,"bfr_kar"
41.3532038,-90.3808307,"oracle_divin"
48.1371079,11.5753822,"Unwind16"
51.6520851,-0.0810175,"Kemal33118043"
59.9132694,10.7391112,"andjens"
53.3497645,-6.2602732,"CormacJOKeeffe"
45.7065895,12.2471852,"EleonoraDeLuig1"
5.6028601,-0.1745444,"kwame_agyei"
-18.865186,-48.265278,"isadora_ssp"
-10.1835604,-48.3337793,"maribarbosaa"
19.07236245,-98.3223472316149,"TragarCamote"
28.1083929,84.0917139,"RamanSh93108654"
53.4310417,-1.355187,"Michael94369648"
-34.170249,-70.7407427,"marco_navg"
42.343926,-3.696977,"m_ubeira"
19.32055625,-99.1517010707765,"Eduardo_Carrion"
51.5073219,-0.1276474,"livefootball"
-0.4598213,36.10067977858,"Ndesh79"
51.5073219,-0.1276474,"The_Stevie"
54.7023545,-3.2765753,"dchesterton"
41.3828939,2.1774322,"FCBNOTICIAS"
37.3886303,-5.9953171,"veronicajuan"
42.6384261,12.674297,"nazionalit"
52.5738875,-0.2416701,"ItCouldKickOff"
7.0000085,-75.5000086,"mabarbos"
-34.6342463,-58.5717454,"AnaliGuerrara"
31.1728192,-7.3366043,"hespress"
44.8879431,1.2161321,"Jas_Velo"
6.4550575,3.3941795,"Oreoluwa_Sam"
-23.5506507,-46.6333824,"PeTotallycrazy"
-32.8897294,-68.8442956,"AscencioVela"
19.4326009,-99.1333416,"Charl3tas"
8.0018709,-66.1109318,"soykatufarias"
52.4082663,16.9335199,"Mich_Kro"
5.41649495,100.343805652947,"ApexAmin"
6.4550575,3.3941795,"zino_orowor"
36.7014631,-118.7559974,"AdrianasIns"
59.7436749,10.2043749,"MadsKK"
41.8999277,12.4849541,"Agenzia_Ansa"
-19.9227318,-43.9450948,"SuperFC"
37.3886303,-5.9953171,"alex8nder3"
53.4791301,-2.2441009,"topriddy"
44.0580563,6.0638506,"LizGabayMW"
41.7270398,-73.3528971,"MichDeji"
43.1561681,-75.8449946,"nicolasbenatti2"
40.5834557,-74.1496048,"JosephDeMauro1"
51.5073219,-0.1276474,"Soc_of_Authors"
-17.0568696,-64.9912286,"minmineriabo"
5.5859456,7.0669651,"Predictionhq"
52.12572195,4.44101686458321,"ZuilenV"
38.7311123,-95.2414104,"LAloginho"
37.3886303,-5.9953171,"Carmenbom"
54.8948478,-2.9362311,"ndy_Bates"
-22.9103261,-43.5615527,"ffc_isadora"
5.8101532,0.0995242,"asedunga"
41.4156774,12.8212218,"BlessedAspie"
8.0018709,-66.1109318,"anaconda50"
5.357367,-3.994934,"Saintismal"
34.6453309,135.5419806,"sakura_joyful"
-10.3333333,-53.2,"memesdacopa"
-28.0555773,-54.8372319528966,"DestinoLiber"
53.3497645,-6.2602732,"WorldRugby"
36.6816936,-6.1377402,"mjesusmojonzapa"
-31.7613365,-71.3187697,"Fah26_"
25.3361589,55.3605655,"xavi_messii"
-22.9110137,-43.2093727,"bebelzinhagil"
-36.7781231,-73.0823093,"robertroxx"
25.2856329,51.5264162,"ccmmkk222"
40.7306458,-73.9866136,"maskvideo"
40.0028028,-4.003104,"vicentoller"
7.802359,6.7430045,"GbengaGOLD"
11.1276626,123.9621553,"elfarooficial"
6.2443382,-75.573553,"Anycovas"
45.4667971,9.1904984,"Reynaldikhsan"
53.7974185,-1.5437941,"RoryBurke142"
29.09261275,48.5133467132717,"osama_madkhali"
-31.5333985,-68.5384882298649,"BustamantMartin"
46.9140141,-96.7944984,"LeaZavatti"
-0.12353365,-78.3589274713217,"viveplay1"
10.3529588,76.5119752,"muhammedsharij"
19.2634938,-99.1033663,"XochimilcoVerde"
-23.5506507,-46.6333824,"plassabones9"
46.6624644,16.1655256,"Sobotainfo"
4.6617449,-74.0678010056575,"MariaAzulEjeCaf"
-4.7993356,114.5632032,"yosangian"
51.5073219,-0.1276474,"DvmGMzC2dmO0Uxl"
-34.9059039,-56.1913569,"olivera_martin"
-23.5506507,-46.6333824,"aps_sccp10"
34.2331373,-102.4107493,"Buchyno"
-17.0568696,-64.9912286,"PlataApaza"
43.2754779,-2.9590352,"DocJulia"
35.266906,-119.0567707,"noelysPA29"
-17.0568696,-64.9912286,"nteresab"
51.5073219,-0.1276474,"SynerGIS"
-5.6753455,-76.6390925,"AdamSheridan123"
44.40982965,8.92548179203911,"therfer"
42.48691275,1.60700011402922,"GunnerDee_"
2.8894434,-73.783892,"copse2018"
-3.450323,-79.9601969,"rogerpaultoledo"
34.6968642,139.4049033,"ju_xin_14"
40.0028028,-4.003104,"enlopezbu"
8.5058909,76.9570481,"GourisankaranP"
-12.0621065,-77.0365256,"idadevuelta"
52.9534161,-1.1492773,"AndyCotterill92"
48.6874172,2.4067546,"EsamBdeuxSquad"
-22.9110137,-43.2093727,"DanielR30614025"
-1.2832533,36.8172449,"MariamWangu"
-7.2459717,112.7378266,"Chimmy_05"
9.624388,-73.2125095,"ElevenSportsUSA"
-42.9165061,-71.3363881,"Noelia1vazquez"
25.7903245,-80.1404637,"PezBlaugrana"
52.7078866,-2.7540094,"Tonyb_12"
8.3096067,-81.3066246,"ElChinoLimYueng"
-37.8142176,144.9631608,"5times_94"
19.4326009,-99.1333416,"jockarlos9"
38.8147596,-77.0902476527272,"mohab_issa"
-29.116395,26.215496,"miKeL_MOTHETSI"
22.3511148,78.6677428,"KP_Robbinhood"
41.8933203,12.4829321,"MariagiovannaA6"
19.4326009,-99.1333416,"erick_sinK"
-8.7996802,115.1506101,"MS_Qolbi"
45.7578137,4.8320114,"Coeur_de_Gone"
53.4308358,-2.96091620802355,"syfqIbrhm"
44.9772995,-93.2654692,"jamiejannae"
2.7243827,101.7381037,"ernestlfc"
20.7137783,70.9853635,"JanaabGeo"
43.90594575,-74.9983060734476,"kevincarrillo93"
-22.9110137,-43.2093727,"AFPBrasil"
4.4923898,-75.7396016646567,"RenovablesUniv1"
-26.205,28.049722,"SteviexHodgson"
39.4699014,-0.3759513,"bztaneh"
11.01184845,-74.8086460830206,"federueda"
9.6000359,7.9999721,"yungjz"
5.4091179,-4.0422099,"LesProIvoiriens"
2.8894434,-73.783892,"camilobotia09"
25.63978365,-100.293101629066,"lasplayerasmx"
-23.960833,-46.333889,"leticiacapp"
8.0018709,-66.1109318,"KuspideSports"
6.4550575,3.3941795,"TeddyKing4real"
8.8311228,7.1724673,"bjay_official"
43.653963,-79.387207,"ViVAtrio"
50.8276199,3.2659948,"maxmdejode"
51.46426255,-0.651714721140142,"Glanville_Luke"
23.5125498,58.5514017715319,"Ista30478311"
40.4167047,-3.7035825,"FutbolTotalFC"
31.649741,35.162072,"Le_Che7"
-22.91209195,-43.2311454059056,"BrazilStat"
39.7837304,-100.4458825,"garzza1"
19.32055625,-99.1517010707765,"RafaBringas"
48.2354031,16.2842142186391,"_JEC95"
45.7578137,4.8320114,"Colfortec"
50.74018055,-1.95377383524348,"Sunseeker_Intl"
39.1014537,-84.5124602,"L5Sourcerer"
19.7027116,-101.1923818,"markodelapaz"
16.8602906,-99.8768321,"RoiDyrdek"
19.3273399,-99.0191905,"alicencantadora"
-34.9059039,-56.1913569,"SyrahUy"
46.5032766,6.6867879,"Touchme4youLe"
51.46426255,-0.651714721140142,"BoxCommentary"
53.3360693,-6.2333466,"slatterys"
26.2540493,29.2675469,"mosta7hassan"
19.166667,-104,"amyrventura"
33.8439408,9.400138,"adel_0"
25.2856329,51.5264162,"trajkovskidrag"
35.74836,139.638735,"touiti_abann"
18.833333,-98,"franjiazul12"
29.970278,40.208611,"hadi3306"
35.6681142,139.7725632,"asahi_photo"
24.6319692,46.7150648,"bntalmajeed"
33.990111,-6.8193862,"MarwaneMao"
25.2232283,55.1594933008754,"KeithAlanDunne"
45.4667971,9.1904984,"ladalessandro"
41.9960924,21.4316495,"Petrusevski13"
30.4575212,-111.039789437426,"chelsea9o"
53.4791301,-2.2441009,"18wordscomms"
-23.5506507,-46.6333824,"drafteam"
25.6242618,42.3528328,"Shksa15"
-53.1630965,-70.9230223,"edisabela1"
52.865196,-7.9794599,"improvpadawan"
19.4326009,-99.1333416,"alex_riguez"
6.4550575,3.3941795,"Ngoziruth266"
25.0750095,55.1887608818332,"Ah_Elawad"
7.0625358,-73.0858228,"pedromiguelqc"
-10.3333333,-53.2,"_AlineMS"
50.9357373,4.3643727,"JelleDeSmedt_"
25.2232283,55.1594933008754,"LeeLee55164282"
10.5111253,-66.9471698,"gusymans"
10.506098,-66.9146017,"Rest_LaEstancia"
15.0610686,-84.5978534,"alvarenga5"
51.2303177,2.9203275,"VanstalleJary"
40.4167047,-3.7035825,"dani87perales"
40.7306458,-73.9866136,"Josh_BKNY"
46.3927575,6.8053765,"BenozziLaurent"
25.4192971,-100.9945068,"robertosavard"
45.6944947,9.6698727,"MattMusciumarra"
55.7507178,37.6176606,"AxelRSCL"
-31.6186951,-60.7019561,"Gusezcurra"
-23.1805011,-45.8872969,"aptorquetti"
40.5248319,-3.77156277545181,"Nopanaden"
-10.3333333,-53.2,"thi_deh"
-41.3178431,-72.9827187,"oscarsurdechile"
-22.9030525,-43.1861702850526,"eduvme"
-22.9110137,-43.2093727,"alvarolucas_"
48.8566101,2.3514992,"OberonZ"
41.0096334,28.9651646,"BatmanCat1"
41.3477372,36.2348331,"35batuhancelik"
10.17778125,-84.0591841807008,"andynuinsa"
6.36117455,-75.589713296052,"sololiteryfil"
-12.133526,-38.420772,"marcelino95"
9.6000359,7.9999721,"thisisBOJ"
43.0805101,-109.5340328,"sapendtraz"
53.45733965,-2.22695880505223,"chronicles_afc"
51.89107295,-0.423030407620178,"ArsenalPoland"
49.1196964,6.1763552,"Riiiiiiiops"
-42.9165061,-71.3363881,"neomorocho80"
55.7507178,37.6176606,"Sergey_Che_"
16.3471243,47.8915271,"Abuabrahim17"
54.347628,18.6452029,"BZabecki"
-32.0334252,-52.0991297,"Rafael_Petry_"
42.5846773,-87.8212263,"iiCabrales"
52.5170365,13.3888599,"wettsportler"
45.79188,9.346745,"davcolo"
30.048819,31.243666,"waelabdelfattah"
-7.0232302,110.384860835387,"Halooreet"
12.9791198,77.5912997,"Anuperfection"
-17.0568696,-64.9912286,"OficialSegip"
52.7954791,-0.540240286617432,"casual_80s"
43.653963,-79.387207,"anubhav2207"
9.0643305,7.4892974,"adamsamana"
29.6479443,-82.3443545,"gf_raihaj4"
25.73584235,-100.266494516522,"Un_Aleex"
40.7306458,-73.9866136,"Marco_NY23"
53.6466645,-1.7822482,"Brewfitt"
26.2540493,29.2675469,"Rashwan3"
41.3758085,-85.700037,"thecasualultra"
37.9944391,13.6561795,"Trabia_PA"
53.808725,-1.5409244,"JoesterT"
51.5073219,-0.1276474,"KidDotCo"
53.5677371,-0.0736289,"kidd81"
-12.0621065,-77.0365256,"JoseNoriega1969"
59.3251172,18.0710935,"perteng1"
20.676143,-103.3469982,"apecechea_TM"
2.0119217,103.446608,"morasaki12"
42.6384261,12.674297,"football_nerds"
52.6348392,-1.1302497,"esischwiesisch"
37.9587465,-76.7580211,"PaulPalka"
-10.3333333,-53.2,"saulo19araujo"
40.4071708,49.8461271,"rashidthaalb"
26.2540493,29.2675469,"egyptnegm"
2.0000003,15.9999997,"Africafrique"
48.3115806,14.2405637,"kzmnsofia"
27.675562,85.275764,"kirtipursaral"
-17.0568696,-64.9912286,"Diputados_Bol"
-23.5506507,-46.6333824,"Ailtommota"
-17.0568696,-64.9912286,"adrianmoronbo"
19.1334321,72.8882172,"SaChintu1"
45.4667971,9.1904984,"Chrisbad87"
9.624388,-73.2125095,"aabrahamssohn"
51.7577649,18.083346,"patryk_fabisiak"
37.5666791,126.9782914,"theseoulvillage"
37.0057958,-89.1772449,"NashatAlexd"
51,10,"football_read10"
26.2540493,29.2675469,"Teeko_TRS"
7.3777462,3.8972497,"Damilarey23"
49.790952,20.3793521,"EstefaniaBenito"
45.4972159,-73.6103642,"KevLaramee"
4.6617449,-74.0678010056575,"sebastian_rod89"
51.0000002,-109.0000002,"SportsPodNet"
51.5400149,-0.000356420145789579,"messiba_de_poet"
6.4550575,3.3941795,"xclusiveafrica1"
5.5600141,-0.2057437,"ToontoomRadio"
-30.0324999,-51.2303767,"igornatusch"
14.5906216,120.9799696,"sotnasoinotna"
25.0750095,55.1887608818332,"ziahassan"
-2.25,105.3,"LosHoteles"
25.7742658,-80.1936589,"InnovationMCC"
45.4667971,9.1904984,"MiTomorrow"
14.4845383,121.0221299,"Ha_1423"
2.8894434,-73.783892,"clinepb5"
50.6407351,4.66696,"unibetbelgium"
15.6356088,-89.8988087,"kathespinoza7"
-33.8301355,151.2447663,"78Helou"
41.4728432,2.0817809,"jvilac"
-23.960833,-46.333889,"arnaldohase"
33.532127,-112.1547187,"culersperelmon"
13.7538929,100.8160803,"surasak_chu"
54.7023545,-3.2765753,"phcimages"
-42.9165061,-71.3363881,"TimingPolitico"
-6.1753942,106.827183,"lewangoalskii09"
-12.0621065,-77.0365256,"erislain"
50.0159029,22.6796573,"Krzeszov"
6.4550575,3.3941795,"addeyeme"
41.4939531,0.4591083,"Kik_Veri"
-34.8569635,-57.9077143,"GOmarvallejos"
-22.1225167,-51.3882528,"alecrowley1933"
11.0018115,76.9628425,"SeinAndZeit"
22.5677459,88.3476023,"greymind43"
-0.2201641,-78.5123274,"herbesta"
-31.9527121,115.8604796,"KC06McM"
19.4326009,-99.1333416,"MarisolSonne"
50.938361,6.959974,"MatthiasRadner"
-22.3712958,-41.7866922,"camelomacae"
59.3251172,18.0710935,"felsjc"
30.048819,31.243666,"HatemGamals"
30.048819,31.243666,"MedinaPortal"
15.593325,32.53565,"AnnzzyBlessings"
39.7837304,-100.4458825,"AdaptiveToolbox"
7.8776956,-72.4866182,"StevenDuenax"
42.6384261,12.674297,"fantagazzetta"
42.5947625,-8.7669178,"presi13"
40.8359336,14.2487826,"fraasco85"
40.8359336,14.2487826,"popup_2015"
42.6384261,12.674297,"fashionaut"
25.2232283,55.1594933008754,"BWC_Security"
41.8933203,12.4829321,"marco_gatta323"
46.603354,1.8883335,"Sejkoa"
1.4419683,38.4313975,"ZahirSalim83"
48.8566101,2.3514992,"alejandrakeyes"
20.6989852,-103.4243519,"Padillermo"
8.0300284,-1.0800271,"NofNews_Ghana"
37.1232245,-78.4927721,"Donna53489856"
39.4699014,-0.3759513,"Ruben288397261"
43.653963,-79.387207,"SameerN7"
-22.9110137,-43.2093727,"MarceloDunlop"
10.506098,-66.9146017,"metalbarsa"
37.9923795,-1.1305431,"VanGoghPub"
51.8161412,-0.8130383,"Ollie_Bayliss"
40.7306458,-73.9866136,"Alkadravillage"
46.603354,1.8883335,"selhimbanshee3"
-3.7304512,-38.5217989,"lsantosweb"
15.342101,44.2005197,"yaldylmy6"
51.46426255,-0.651714721140142,"KRM_Morgan"
19.4326009,-99.1333416,"_Dan_Ram"
25.6242618,42.3528328,"AlwatanSA"
-31.6403453,-60.7157178,"santiago_rios"
45.4667971,9.1904984,"gm2666"
51.5073219,-0.1276474,"Heartz15"
14.1696476,121.3336526,"elrodrix"
41.0096334,28.9651646,"DoctorOnder"
-17.0568696,-64.9912286,"abi_bolivia"
39.5695818,2.6500745,"maggiezasss"
42.2376602,-8.7247205,"ValeroRafa"
19.7078812,-101.1569649,"13cvc13"
-31.7613365,-71.3187697,"b_sefora"
42.6384261,12.674297,"welovethejuve"
40.8762106,-74.0298621,"albitahurtado"
43.3851103,-3.73669902062898,"JulyTorres9"
41.3828939,2.1774322,"royo_sergi"
4.7676576,7.0188527,"JoshAmobi"
9.624388,-73.2125095,"RoseLeon111"
28.34547755,-81.6330624068667,"ToyinOfLife"
37.1232245,-78.4927721,"ofpeopl"
51.46426255,-0.651714721140142,"ProformanceG"
25.2232283,55.1594933008754,"ElDotDono"
50.2164354,8.6915513,"MailtasticApp"
-1.6632409,31.4014928,"FlaviaFazenda"
43.7283874,-79.34914879325,"wallexstically"
8.0018709,-66.1109318,"EdgarBlancoJP"
34.2331373,-102.4107493,"iamwbis"
50.0171741,4.0458492,"cedric_lambert1"
11.85677545,42.7577845199437,"rassace"
53.198627,50.113987,"14_89276050774"
20.676143,-103.3469982,"israelpiz"
38.7077507,-9.1365919,"tretapak"
-34.4226303,-58.5808766,"spree95"
43.653963,-79.387207,"hitech_guru"
37.3349271,-5.9270935,"FisioStacruz"
43.7283874,-79.34914879325,"pen_int"
14.5496113,121.0541575,"swambi"
53.132398,23.1591679,"pawell147"
58.8355002,14.9257551081646,"LeftwingMartial"
36.5748441,139.2394179,"du4nicht9siehst"
43.8519774,18.3866868,"hajnakafu"
43.0314853,-87.8958096519185,"daddou1512"
2.8894434,-73.783892,"edharepe"
-7.846423,112.1005469,"KhaosodOnline"
40.13821645,-79.8375059939964,"DeVilbissPeter"
4.9408638,7.8412267,"emtai4"
55.9902293,-3.3966999,"qftravel"
42.4661196,-2.4396676,"LCelorrio"
22.3511148,78.6677428,"1ndraJ"
-31.7613365,-71.3187697,"alaiiiin"
24.6319692,46.7150648,"Moa_Taz"
52.3744779,9.7385532,"apollo909"
-34.5581493,-58.4558528,"_YvesMerlin"
45.4667971,9.1904984,"Emanuele4Music"
59.5201583,8.1946167,"ReytGoodMag"
41.8537767,12.4584533,"aallara"
41.8933203,12.4829321,"DavidePanunzi10"
4.5980772,-74.0761028,"AscoopColombia"
52.5170365,13.3888599,"casareto_re"
52.865196,-7.9794599,"StayPlanet"
-34.9964963,-64.9672817,"_yonosoy"
49.1370376,7.3676832,"Volpe_Lupo"
55.7507178,37.6176606,"Ollissya"
36.7213028,-4.4216366,"ZeniMarina"
45.4667971,9.1904984,"edelweiss330"
4.203033,10.0563057,"HaroldJoakim"
52.5170365,13.3888599,"YaHoeppner"
51.5073219,-0.1276474,"LeeW_Sport"
48.86423125,2.32124879840551,"xavmon"
-16.680882,-49.2532691,"revista_factual"
6.5422505,-57.7965872,"BBO_Lee_"
43.7283874,-79.34914879325,"beeradventures_"
43.2630051,-2.9349915,"mr_sambo80"
42.6384261,12.674297,"davideinno85"
6.543021,100.22572,"Ebitsuz"
38.1112268,13.3524434,"Giulia90955391"
44.40726,8.9338624,"GabrieleLepri"
34.054935,-118.244476,"AntonvonRueden"
48.6358559,-1.5126096,"Ghigo_07"
25.0750095,55.1887608818332,"1boxoffice_com"
4.5980772,-74.0761028,"entrevariedades"
52.7826982,1.4133514,"ClemensonSmith"
41.8933203,12.4829321,"Agimegitalia"
42.6384261,12.674297,"SNAI_Official"
37.6267868,-1.0006184,"nomascorruptosc"
48.8566101,2.3514992,"JeuneGuillou"
43.880598,11.0969262,"Batmattz"
33.8304221,35.5416137,"DJBShoW"
51.5073219,-0.1276474,"riccardinouk"
51.5073219,-0.1276474,"senakaweeraman"
25.22803095,55.17332793087,"AndyR_Sport"
22.3511148,78.6677428,"AniketSugara4"
5.112735,7.364349,"de_ejimtony"
0.3177137,32.5813539,"pkaturamu"
25.2856329,51.5264162,"evosoccerqatar"
-37.95131145,-57.7775096677612,"nachule"
-16.0170857,-48.0653054,"oTiagoAndrade"
32.3293809,-83.1137366,"UGAGrad"
2.8894434,-73.783892,"PoliticaHeroica"
2.8894434,-73.783892,"Futbolindepalo"
40.8359336,14.2487826,"gaver69"
3.9696002,108.1756093,"rifky_hardyanto"
6.4550575,3.3941795,"wondakhid"
-27.4689682,153.0234991,"PierGac"
21.5822247,39.1640396,"OKAZ_online"
-40.5733223,-73.1359011,"rickyasfos20"
59.6749712,14.5208584,"Arvid115"
44.8372737,11.6186451,"biancoceles"
48.6443057,2.7537863,"wronginho"
51,10,"gentomobile"
-12.0621065,-77.0365256,"carlos1aparicio"
18.2536993,-100.193906662846,"elchagotc"
-34.9964963,-64.9672817,"MaraArab"
26.338393,127.806341,"mannori0228"
24.6319692,46.7150648,"OmarMadkhali"
19.4326009,-99.1333416,"adamo009"
14.5844444,29.4917691,"YasserIb"
47.3723957,8.5423216,"thomas_ley"
40.033265,-7.8896263,"PublicoP3"
14.4750607,-14.4529612,"teledakar"
-21.4192406,-50.0765588,"leovituzzo"
-27.4221702,-55.9350095,"PlayboyTVLA"
21.5822247,39.1640396,"889abuomar"
19.4326009,-99.1333416,"CassQueen"
4.6617449,-74.0678010056575,"MarcoBullies"
40.74123595,-73.356691165361,"promotion_first"
58.9935488,15.3272215264051,"SwedishMartial"
-28.0555773,-54.8372319528966,"PabloTube30"
38.3599931,33.9864261,"MertKirik"
-10.3333333,-53.2,"nayaraportelaTV"
19.4326009,-99.1333416,"O_Q777"
33.4485866,-112.0773456,"mulbrotha"
6.4550575,3.3941795,"adesoye_jr"
19.1943294,72.9701779,"ritwikspatil"
6.4550575,3.3941795,"davero24"
45.665698,9.4376098,"andreafabris96"
44.23912,0.64707,"Alex4778"
-34.6411753,-58.4323893,"Guihdo"
53.7974185,-1.5437941,"sampatchitt"
4.6617449,-74.0678010056575,"ypaoquint"
41.8933203,12.4829321,"lollo_grim"
-32.8897294,-68.8442956,"elmiradormza"
44.2015624,0.6176324,"47FM"
42.6384261,12.674297,"JohnHard3"
35.62125,139.688014,"kewmetal"
-17.0568696,-64.9912286,"ElvioDiasCruz2"
34.395342,-111.7632755,"ToshuTrinity"
4.5980772,-74.0761028,"amycadc"
-23.6121912,-46.7790539,"feafirmino"
25.7742658,-80.1936589,"PAUCHAVARRO"
17.9656844,-92.9020085,"rubensalcocer93"
39.6594484,2.9862211,"Indiano1331"
48.8566101,2.3514992,"Franck_Berteau"
6.794565,3.8559855,"getbigi"
43.653963,-79.387207,"GoldenChyld15"
6.4550575,3.3941795,"Hubmart"
25.011997,121.4656619,"TW_nextmedia"
6.4550575,3.3941795,"Chartbee"
59.3251172,18.0710935,"mikaelgrev"
40.8762106,-74.0298621,"yeiner_morales"
0.3177137,32.5813539,"Mickyjam"
19.166667,-104,"Fernand58257707"
10.2735633,-84.0739102,"ContactingMarco"
-42.9165061,-71.3363881,"RitchieRweda"
40.7306458,-73.9866136,"YouTubeHowToDIY"
-30.1501099,-51.2211468,"rafaelprimo"
40.06160405,9.09775380655307,"Cane_Sciolt0"
-22.9110137,-43.2093727,"annytty"
19.531932,76.0554568,"Ash_9378"
2.8894434,-73.783892,"ronaldrojasro"
9.0643305,7.4892974,"NAhmadAmina"
-23.6495294,-46.8528497,"sebosapienza"
-18.865186,-48.265278,"gpires22"
45.4667971,9.1904984,"teo_brotherwolf"
5.4091179,-4.0422099,"julienne_bamba"
11.1276626,123.9621553,"laugutierrezba"
37.0155427,128.5857804,"ambrocioa07"
48.8566101,2.3514992,"Oud1bad1"
-28.3769444,32.4141667,"rcistlucia"
19.4326009,-99.1333416,"diegodelunamx"
53.45733965,-2.22695880505223,"VikramAffiliate"
45.6944947,9.6698727,"dariovioli"
53.4150056,18.4590968,"kievo_Polska"
13.7538929,100.8160803,"GSB_Family"
53.45733965,-2.22695880505223,"SportsBetTrans"
28.6415665,77.2126308,"K_Anusuya7"
35.609985,140.118126,"GusFielding"
13.7538929,100.8160803,"Jane_nunz"
48.6443057,2.7537863,"tweekette75"
-1.3397668,-79.3666965,"RC_MACHADO182"
-0.2201641,-78.5123274,"fausnoriega"
19.4326009,-99.1333416,"eunyoomoonlight"
10.9,6.5,"D59034579"
-12.0294672,-72.8601102,"okeek01"
36.4191096,-6.1460683,"Que_miras_"
-10.3333333,-53.2,"srsmalik"
-23.5506507,-46.6333824,"camabap"
27.708796,85.320244,"prjsubedi"
4.6617449,-74.0678010056575,"JulsAlGhul"
44.88374595,-0.605126444043871,"JeanDoobs"
-22.9110137,-43.2093727,"dodsdmr"
45.7369595,8.8968127,"SciabolataFFP"
-32.8755548,-56.0201525,"furtadoastoviz9"
-27.0233364,28.6255542,"IsmailJamAlllag"
9.0643305,7.4892974,"europafixed666"
-23.5506507,-46.6333824,"Antoniogzzx"
38.8949549,-77.0366456,"NeverAgainGC"
51.5073219,-0.1276474,"sunphilips"
12.9791198,77.5912997,"saideep_btr"
38.212263,45.7285348,"deepanalfist"
-17.0568696,-64.9912286,"OrlandoGadch"
2.8894434,-73.783892,"jolecere"
51.5073219,-0.1276474,"Zireael1272"
48.6937223,6.1834097,"Liloudelu"
4.8416028,6.8604088,"anwurichi"
53.86117155,-2.54711154031047,"brickweb"
51.4538022,-2.5972985,"princestsocial"
51.456659,-0.9696512,"alexstanger1993"
25.7742658,-80.1936589,"msvanezuela"
60.6750132,17.1467019,"beckmansasikter"
35.7006177,51.401375,"KhosroshahiAmin"
19.4326009,-99.1333416,"HctorDanielOrt2"
52.537789,13.40914,"eduardopassos"
14.4750607,-14.4529612,"CanoeKayakSN"
32.9407496,52.9471344,"ISNAMEDIA"
18.1923169,-99.6023669533758,"hazadrian"
38.5820624,68.7915550419527,"AlexDeBargeX"
-33.4377968,-70.6504451,"VIASATELITEpCL"
42.2765867424767,-71.1669079436859,"sadsherlock2003"
18.547327,-72.3395928,"loucendy"
25.939003,-80.1255338721964,"BishBlueHammer"
-22.9110137,-43.2093727,"oficialsmigol"
6.4550575,3.3941795,"ShehuWilliams"
-38.9355475,-67.990978,"DadoRodri"
50.9446987,-0.527605823623323,"mattnashmetro"
-6.1753942,106.827183,"bobby_fauzie"
3.0332673,-75.2794423959783,"AdrianaCorts1"
41.3828939,2.1774322,"sorianoencarna"
16.3471243,47.8915271,"77mohammed30"
45.4972159,-73.6103642,"TyPatrick89"
30.311908,-81.3964734,"GotSoccer"
9.0643305,7.4892974,"kunlerystar"
14.4845383,121.0221299,"iNasorrry"
-23.5506507,-46.6333824,"luizmurat"
-19.9227318,-43.9450948,"sorayabelusi"
33.5950627,-7.6187768,"AlaeBennani"
41.2966556,-7.74678,"PedroVeloso1893"
26.2384363,-99.8873,"aRomeroll"
41.0293083,29.0326345,"Emre_Tilev"
21.7670269,-78.0947805,"fiston28"
22.3798036,40.7132441,"drhman"
53.45733965,-2.22695880505223,"TheConciergeMag"
45.4667971,9.1904984,"ilcruccu"
40.0028028,-4.003104,"nereita_reyes3"
18.2563027,42.3741645,"AliAlrobayee"
-7.0258285,-37.2766817,"guedesshopping"
-8.1947233,111.1035716,"BagusPr39906126"
53.5415797,-2.1147831,"whitey1379"
-12.0294672,-72.8601102,"icanabdul_"
48.8566101,2.3514992,"LionelMaugain"
21.161829,-86.82505,"pariscarbonell"
-19.0183481,-40.5367485,"paulmferreira"
40.282476,-3.7923422,"dannysanz9"
59.3251172,18.0710935,"pogledizstklma"
45.4667971,9.1904984,"Robxrecords"
41.8933203,12.4829321,"AdrianoStabile"
48.8566101,2.3514992,"serpenta99"
-5.6753455,-76.6390925,"UksRestaurants"
-31.4173391,-64.183319,"SerZuliani"
14.5906216,120.9799696,"miggatsby"
45.4667971,9.1904984,"MondoFutbolCom"
41.8933203,12.4829321,"m_vitelli"
20.8542575,-99.84756,"delaRo5a"
30.616625,-81.7170472,"GiMartorelli"
8.3096067,-81.3066246,"Supricom_panama"
51.7967047,0.579338882096011,"CharlesGreig"
-17.0568696,-64.9912286,"mayumijhanina"
-42.9165061,-71.3363881,"hoteldolmen"
10.506098,-66.9146017,"MAURICIOGOMEZ48"
40.555597,-102.8175857,"pablo_de_nariz"
-4.7993356,114.5632032,"rido_turisma"
43.3185536,11.3316533,"InsdataInter"
50.1752564,6.6251052,"Miguelmm40"
13.7538929,100.8160803,"jaboong_rama2"
50.923662,4.4096403,"PromoCrypto"
29.7589382,-95.3676974,"mrdjt007"
-33.4278677,-70.611597032211,"rissito"
43.4623102,-3.8101067,"luismivia"
2.8894434,-73.783892,"JimmyTez"
-27.200475,25.979925,"Realebo21749362"
52.9534161,-1.1492773,"MarkLeek5"
-24.655319,25.908728,"Schilo_Znchenko"
4.5980772,-74.0761028,"christianruge"
46.2303063,7.6605757,"cassandra190798"
36.1662859,-115.149225,"ChuckBassBet"
-1.6632409,31.4014928,"ray_combo"
41.8933203,12.4829321,"rosariarenna"
4.5980772,-74.0761028,"VivaLaVidaBien"
6.2443382,-75.573553,"Sammuelh"
-33.4377968,-70.6504451,"JorgeEd95718174"
2.3923759,112.8471939,"OfficialAarif10"
19.416667,-98.166667,"marjd_1029"
52.7954791,-0.540240286617432,"salmon_stuffed"
19.1334321,72.8882172,"rajendranpandey"
16.4263803,-93.1404794,"Ed_Maldonado"
51.46426255,-0.651714721140142,"SashaDugdale"
-9.0478679,-70.5264976,"duainerodrigues"
-21.7609533,-43.3501129,"tania_tpimentel"
-34.4739792,-58.5264866,"Wallychoo"
-32.9595004,-60.6615415,"Rostower"
-10.3333333,-53.2,"fabiabrams"
25.0750095,55.1887608818332,"elmorphy"
-33.8548157,151.2164539,"RoyLukman3"
1.5333554,32.2166578,"MeBelbels"
38.7077507,-9.1365919,"WhosChampion"
-6.1753942,106.827183,"nurfahmibudi"
51.5073219,-0.1276474,"richardmelik"
40.0028028,-4.003104,"GalaGalk"
43.653963,-79.387207,"Algocentric"
51.0000002,-109.0000002,"SoccerTodaySPN"
-6.1753942,106.827183,"INDOBARCA_JKT"
-34.9964963,-64.9672817,"GerardoGerman52"
39.4011424,-3.1341671,"DRVABQX"
22.5000001,-100.5000001,"Normalu62"
45.0141141,9.1235778,"elia_mendola"
25.2017152,55.1542459,"tabnrgy"
45.4667971,9.1904984,"soProud_of_You"
-34.6130461,-58.3824172,"UTOPIA_ARG"
37.169397,-104.5005411,"mccannworldtnt"
43.653963,-79.387207,"FadiTYounes"
25.2232283,55.1594933008754,"alex_jbutler"
25.3336984,51.2295295,"laaa99"
42.6384261,12.674297,"SisalMatchpoint"
4.7916539,100.9276057,"Nuraz_Wawa"
59.3251172,18.0710935,"geniet"
52.7954791,-0.540240286617432,"VenueInsight"
46.7323875,-117.0001651,"pabloquirogav"
59.3388631,18.0613931,"Alberto_Torress"
51.95686495,-0.223050907841725,"JWriting_"
15.6356088,-89.8988087,"LeiJimenez_"
25.2232283,55.1594933008754,"busybusyboi"
-79.4063075,0.3149312,"M3laniel_"
8.0300284,-1.0800271,"admaalnews"
-33.8548157,151.2164539,"GeorgeBakhos1"
6.4550575,3.3941795,"LagosTalks913"
4.6617449,-74.0678010056575,"cizdibujos"
28.6141793,77.2022662,"satish19882009"
-12.9822499,-38.4812772,"MARCO5_PAULO"
-23.5506507,-46.6333824,"MilldeskBrasil"
-22.285833,-46.612222,"FootballAMZ"
-6.8638235,39.2551949,"M_Derbi"
1.2904753,103.8520359,"bolasepako"
40.4416941,-79.9900861,"michael_mautino"
45.4673791,7.874797,"axel619987"
6.4550575,3.3941795,"iadeleke50"
25.7742658,-80.1936589,"goandfundme"
51.5073219,-0.1276474,"african_glitz"
37.64057565,-7.67066509468617,"ChoibolsanHSB"
50.6407351,4.66696,"yentlkeuppens"
9.6000359,7.9999721,"opeoluway2k"
52.865196,-7.9794599,"SportsFansPics"
-12.0621065,-77.0365256,"KreuzaPop"
43.653963,-79.387207,"MagoKikeops"
41.4680096,2.07836549643705,"tve_catalunya"
36.7014631,-118.7559974,"cartoystory"
41.6521328,-4.728562,"saragarme"
14.479454,-17.0756946,"jatouna"
14.693425,-17.447938,"dahiie_d"
25.7742658,-80.1936589,"lopezgovlaw"
-31.6186951,-60.7019561,"jonasbj10"
40.4167047,-3.7035825,"neel2_5"
41.3828939,2.1774322,"albasketch"
-23.5506507,-46.6333824,"LilianPacce"
-42.9165061,-71.3363881,"julianbla"
51.5073219,-0.1276474,"AmandaDCNN"
45.4667971,9.1904984,"carloparigi82"
6.4550575,3.3941795,"kingdavide"
51.5073219,-0.1276474,"verityrhealey"
40.7306458,-73.9866136,"CaptMorganFX"
18.47167415,-69.9246298160486,"ZDeportes"
41.8933203,12.4829321,"francyfanelli"
-10.3333333,-53.2,"danieltui2"
19.25113375,-99.5937281303492,"BamBamRam31"
35.7006177,51.401375,"ghesegoo"
26.54431035,50.027247680962,"Muallem_10"
42.6384261,12.674297,"Betscannerit"
52.7954791,-0.540240286617432,"SportplanTeam"
14.951507,-16.812868,"peindafall"
25.0750095,55.1887608818332,"aljuda_com"
23.7593572,90.3788136,"MHM_306"
55.5043158,38.0353929,"DobryakPux"
25.6905515,-80.235008979837,"ELNOTICIEROVISU"
-24.1852569,-65.2994789,"DIEGOTJUJUY"
26.2540493,29.2675469,"eltaweal"
9.624388,-73.2125095,"Edmo06"
51.5073219,-0.1276474,"englishpen"
54.7764152,-1.5758539,"inbozwetrust"
-34.9059039,-56.1913569,"MonteCarloTV"
9.6000359,7.9999721,"Prosper_Kenn"
40.19531445,44.5146085133621,"emaratalyoum"
-15.5492443,-47.3301212,"juliombrizuela"
-11.9364841,-76.694451,"KVN_Marcos"
-33.2892968,26.5655743,"PatrickNella"
-42.9165061,-71.3363881,"cachorrosego"
11.1276626,123.9621553,"AldoesAldo"
38.7311123,-95.2414104,"OneSuspended"
53.5522264,8.5865509,"CraftBaron"
53.7137251,-2.097753,"garethdrake33"
51.5073219,-0.1276474,"SP12XX"
36.5298292,-6.2925679,"javibe6"
-26.205,28.049722,"ActioncoachK"
43.7283874,-79.34914879325,"Bellagio_Europe"
-17.0568696,-64.9912286,"amandadavilat"
9.6000359,7.9999721,"Miembamish"
43.62889055,11.4247600745542,"raspa90"
54.6294982,-6.7654416,"KarenDouglas_NI"
26.2540493,29.2675469,"Eslamelhadary3"
64.6863136,97.7453061,"KorshunovG"
-23.8319444,30.1611111,"REASON22242776"
-10.3333333,-53.2,"orafasanti"
40.8762106,-74.0298621,"ander_rodriguez"
53.6475988,-3.0041751,"Kerrie46860876"
51.5073219,-0.1276474,"konymandibio"
26.23932285,50.595028610022,"Zoozaie"
28.6141793,77.2022662,"love4ulot"
22.7203851,75.8682103,"SuyashParakh"
53.5818981,-2.1039554,"Tom_OAFC"
-34.9964963,-64.9672817,"EnUnaMochila"
40.4167047,-3.7035825,"adrianferreras_"
41.3874344,2.16903130986842,"Dennisfcb1899"
8.0018709,-66.1109318,"CandangaVen"
55.7507178,37.6176606,"eugeniya797"
-32.8755548,-56.0201525,"Maikgianino"
52.5170365,13.3888599,"lingoda_com"
31.9515694,35.9239625,"ahmad_alaghbar"
41.3828939,2.1774322,"FerranPeral8"
52.5170365,13.3888599,"OnefootballEN"
27.7567667,-81.4639835,"GoldnGoal_"
51.5073219,-0.1276474,"NBRA_ORG"
37.4863239,-122.2325233,"owMobility"
53.7229229,-1.8604874,"lewisdawson97"
53.4791301,-2.2441009,"DannyAins88"
10.4195841,-75.5271224,"MarielaAlvear"
56.8723481,59.9722268,"Der_Parole"
8.0018709,-66.1109318,"PABLOAPONTEEPSD"
41.8933203,12.4829321,"repubblica"
46.1927519,6.2343811,"ntsornella"
12.3724928,-84.8700308,"JrLanzas"
5.70531055,-75.0921269896775,"MounirNouniA"
41.2871196,13.2492009,"Marco3Moretti"
-22.8832371,-43.1154552,"ingridmiler"
51.5073219,-0.1276474,"sinsin_x"
-23.1805011,-45.8872969,"NexoLinguistica"
59.938732,30.316229,"JackMarsman"
24.0002488,53.9994829,"Al_Baihani"
39.7837304,-100.4458825,"Beaneyvi"
6.4550575,3.3941795,"Naija102FM"
42.6384261,12.674297,"RBcasting"
46.603354,1.8883335,"FrogPubs"
52.7954791,-0.540240286617432,"Ampugh14"
34.6968642,139.4049033,"corazon_buta"
25.2232283,55.1594933008754,"Greentarnie"
51.5073219,-0.1276474,"UTCManagement"
4.5980772,-74.0761028,"Rub_Boa"
-33.4377968,-70.6504451,"NicoSerranoF"
33.0955793,44.1749775,"The_boos_98"
4.5980772,-74.0761028,"orlanmorenograf"
41.582811,-4.7214404,"Stc2_Irene"
12.9791198,77.5912997,"theanalystsdesk"
12.2350139,109.1945786,"MOHCTPOB"
57.6674439,14.9735595,"mohamedsandouk"
6.4550575,3.3941795,"b25328b628e049d"
52.5678306,1.6628618,"RuthieR"
-31.4173391,-64.183319,"meyerwg53"
25.2017152,55.1542459,"sergejacko8"
25.6242618,42.3528328,"AAjjwah"
10.4494466,-64.1630154,"cdbm1985"
48.1371079,11.5753822,"SZ_TopNews"
35.357674,139.318278,"opmkiyo"
-37.8142176,144.9631608,"kashthefuturist"
39.4699014,-0.3759513,"TutanPusic"
36.6816936,-6.1377402,"Tsb97"
-22.9110137,-43.2093727,"bobpulga"
19.3273399,-99.0191905,"Mats11"
34.9823018,33.1451285,"Sadag02"
-34.6130461,-58.3824172,"jmasterok"
30.3308401,71.247499,"azadwali03"
26.8234472,18.1236723,"mabroukaobiedi"
51.7607271,-0.5652554,"BoatBerkhamsted"
-34.9964963,-64.9672817,"JuanBFMartinez"
9.6000359,7.9999721,"thefootiefans"
48.1371079,11.5753822,"SZ"
40.4167047,-3.7035825,"Elena_Heras"
51.52373945,-0.143911928919142,"TheAlbany"
-23.5506507,-46.6333824,"wernervf"
9.0433816,-83.2985847,"franmonzxn"
40.4167047,-3.7035825,"FranOmega"
48.1371079,11.5753822,"SZ_Sport"
40.4167047,-3.7035825,"ChemayC"
19.4839446,-99.6899716,"Omarrios211"
35.2078012,72.5473968,"ralkhabbaz"
46.0850276,12.9392936,"maxasq"
5.5043842,-73.0375052,"SoyLauraMejia"
31.746214,34.9886825,"SamuelSokol"
40.06160405,9.09775380655307,"danieledem75"
6.45563705,3.38322335013503,"ETLFSport"
51.7520131,-1.2578499,"jonboy_avfc"
25.3336984,51.2295295,"AbdallaQatar"
5.5600141,-0.2057437,"ampmghana"
2.8894434,-73.783892,"JRafaelVet"
34.6968642,139.4049033,"kyodo_sports_en"
45.813177,15.977048,"TomislavZerjav1"
24.6319692,46.7150648,"Alihadadi2"
41.3828939,2.1774322,"sidroj"
0.3177137,32.5813539,"URAuganda"
-33.4665062,-70.6742985,"cmzepeda"
-33.4377968,-70.6504451,"nanmunoz84"
38.4153421,27.144474,"daralof"
33.94287445,-118.128731601431,"fabolous4u"
40.3429683,-76.4233816,"mouhama69015483"
-34.6143033,-58.5258108049808,"Vector_C_"
-17.0568696,-64.9912286,"mincombolivia"
-42.9165061,-71.3363881,"candydashgame"
41.3874344,2.16903130986842,"linformatiu_tve"
19.4326009,-99.1333416,"actavio_perez"
41.8933203,12.4829321,"GolDiTacco"
-10.3333333,-53.2,"vcafemania"
-10.3333333,-53.2,"minifazenda"
48.1371079,11.5753822,"SattlerBettina"
2.8894434,-73.783892,"diegoaguerrero"
6.4550575,3.3941795,"JabTalks"
-22.9110137,-43.2093727,"RafaNedved"
-20.5394478,-47.4015023,"eduzanete"
-33.928992,18.417396,"cedricklufwe"
-33.928992,18.417396,"stmuteya20"
52.2033051,0.124862,"_TheDistrict"
25.7744291,-80.1332415,"DJMauricioParra"
51.5073219,-0.1276474,"Chels7a"
46.7985624,8.2319736,"Sangi_22"
-23.5506507,-46.6333824,"alvarojosetv"
44.9129225,8.615321,"MuseoGrigio"
52.5052921,13.3481655,"EmbBoliviaDe"
28.1083929,84.0917139,"elninopawan"
-36.8270169,-73.0503189,"PaulinaAstrozaS"
-19.9227318,-43.9450948,"5adiq"
37.3444908,-6.0606771,"baltasarb"
40.4167047,-3.7035825,"Webftorres"
7.9897371,-5.5679458,"SehiFlanIves"
51.5175426,-0.1651864,"UrbanPubs"
51.5073219,-0.1276474,"TheBOMmedia"
2.8894434,-73.783892,"PauloJurado11"
-23.5506507,-46.6333824,"mariollj"
8.1080955,-63.551078,"edgarbo63957770"
-17.0568696,-64.9912286,"Calderory"
-17.0568696,-64.9912286,"RedPatriaNueva"
2.8894434,-73.783892,"dbagett"
52.7954791,-0.540240286617432,"footybookreview"
41.1172364,1.2546057,"mireiabar"
-16.4956371,-68.1336346,"tritigrehernan"
8.0018709,-66.1109318,"SaborMagros"
-33.928992,18.417396,"majola_bayanda"
6.4550575,3.3941795,"i_am_dahray"
37.3399964,-4.5811614,"adrianpp99"
50.8465573,4.351697,"GDPR2018RulesUs"
59.4372155,24.7453688,"angelorumori"
44.4936714,11.3430347,"Ritagliati_RCdC"
-37.3282887,-59.1356957,"cersinger"
53.902334,27.5618791,"luciusdomenus"
-16.680882,-49.2532691,"araujopaula2"
22.2793278,114.1628131,"Albert_CHPM"
24.471153,39.6111216,"zozmoon15"
37.3886303,-5.9953171,"patxiarrogante"
42.6384261,12.674297,"LucianoGenna"
40.4167047,-3.7035825,"BahiaFutbol"
26.54431035,50.027247680962,"khalil_showieen"
6.4550575,3.3941795,"RBenitez85"
34.2331373,-102.4107493,"tomdevlieger"
-1.3106188,36.7791433,"geonal"
4.8142912,-75.6946451,"JuangoLopez"
-42.9165061,-71.3363881,"iambrianhidalgo"
-24.655319,25.908728,"rtmodisane"
45.7774551,3.0819427,"celinevrs_"
-22.8832371,-43.1154552,"rzanata_arnos"
45.689128,11.4608229,"MarkPenCase"
51.5073219,-0.1276474,"livestreamhdnet"
32.9407496,52.9471344,"ramin_rezaian"
52.7954791,-0.540240286617432,"Igor_Mizzi"
35.266906,-119.0567707,"DavidRIglesiasS"
15.593325,32.53565,"al_wa7dany"
36.7014631,-118.7559974,"Tshirt_Amazon"
-17.0568696,-64.9912286,"Canal_BoliviaTV"
60.6750132,17.1467019,"samersalam80"
-32.9595004,-60.6615415,"marrampo"
2.8894434,-73.783892,"TatianaHigueraV"
51.38660965,0.547714867236488,"faddi73"
-34.6130461,-58.3824172,"BAUTISTANET"
2.3923759,112.8471939,"shoban86"
-34.9964963,-64.9672817,"dgabin"
40.973212,14.204928,"Giovann23825206"
50.0182986,2.85582835513011,"baskaise"
51.5073219,-0.1276474,"felixthecat58"
-15.7862543,35.0035694,"Justinjnr11"
41.5645337,-93.7595281,"SirKingAle"
55.9725499,-3.1709492,"doingthe116"
6.4550575,3.3941795,"iamuchejustin"
-24.655319,25.908728,"dionmpelega"
-17.0568696,-64.9912286,"endedelbeni"
25.2295108,55.1821420307293,"SUTRULA"
12.5630825,7.6207063,"muhddoguru"
36.7213028,-4.4216366,"restlagrada"
-31.9527121,115.8604796,"trebor4128"
33.8439408,9.400138,"AfGharbi"
40.5834557,-74.1496048,"ebologna131"
9.08251365,-83.2465025101169,"margacortesvela"
-25.3548171,-57.4427315,"braian182"
54.8611124,-1.43201801730217,"_RESIST_"
53.2852213,50.4785577,"FmoCqsUKdyn3Nyf"
14.4750607,-14.4529612,"adamadiallodk93"
40.19531445,44.5146085133621,"omeradli"
6.2443382,-75.573553,"AramburoFelipe"
39.0806223,17.127196,"RaffaeleArcuri5"
9.6000359,7.9999721,"SamuelTonbara"
-19.0477251,-65.2594306,"Vitoriel"
40.8762106,-74.0298621,"yesuab8"
4.7676576,7.0188527,"dahgabe"
43.3518038,-2.5272504,"chanifreedom85"
12.3724928,-84.8700308,"VladimirCuauht1"
49.9064531,5.6881541,"JFCHollange"
6.2443382,-75.573553,"HenryHoracio"
40.4167047,-3.7035825,"mlcano75"
48.7587887,15.7224934,"ChristophPlank"
50.6305089,3.0706414,"CRABY4"
52.7954791,-0.540240286617432,"JMcDFoundation1"
35.2078012,72.5473968,"nonoaltaitoon"
19.1334321,72.8882172,"issahilkhattar"
3.377026,-76.5220476388547,"andrescuervoch"
29.54053215,-95.2934528703637,"mirendoconto"
41.480348,14.0423319,"Simic1983"
-23.3514733,-47.8552438,"aaxideagosto"
14.612647,-61.0865086,"DEECOOL972"
-5.5028089,122.561801480511,"lskamanasa"
51.8559222,0.4369776,"EyeFelsted"
-34.9059039,-56.1913569,"BienestarFP"
-42.9165061,-71.3363881,"maxidvl"
38.2636612,22.0576191,"amna_news"
-22.9110137,-43.2093727,"futebollnutella"
51.4816546,-3.1791934,"TrystanPugh"
0.3177137,32.5813539,"KambaSaleh320"
-23.5506507,-46.6333824,"VeneciaWichi"
45.6500335,13.7706559,"albertogerdol4"
41.4070103,-75.6519859898207,"FreedomOU812"
35.2078012,72.5473968,"m_alnooh"
25.7182834,-100.191653,"maqdel"
32.9407496,52.9471344,"mhrshd_Ak"
53.6466645,-1.7822482,"peterotooleart"
55.204557,-6.9787452,"quiquefigueroa"
8.0018709,-66.1109318,"CorporacionTPD"
51.5073219,-0.1276474,"ciablog"
53.4018582,-2.5680223597163,"TomMaston"
48.8566101,2.3514992,"Kalima_RP"
-34.6510527,-58.6217416,"MarceloLepo"
48.2315175,17.0529694543339,"tvmarkiza"
19.4326009,-99.1333416,"pixervatory"
52.4341996,-1.8915624,"elmunro"
40.033265,-7.8896263,"esbanjador"
-10.3333333,-53.2,"flaviostat"
9.0643305,7.4892974,"genero_johnnel"
43.645191,3.83641366544284,"lorennbravo"
51.5073219,-0.1276474,"allscores1"
51.5073219,-0.1276474,"KlisEmm"
38.1035389,15.6397556,"Gios_87"
4.5980772,-74.0761028,"acm2308"
6.4550575,3.3941795,"oge4u"
10.1796632,-67.4606765,"robertoaguston1"
8.0018709,-66.1109318,"CCPDVSAGASANACO"
34.054935,-118.244476,"gowithdennis"
11.1276626,123.9621553,"jhonfarcor"
19.4484168,-99.1579752,"poquitofaithmt"
45.4850939,12.23314,"RinoMoschiano"
8.0018709,-66.1109318,"DuranBlanquita"
28.0780718,-82.7637127,"sammax_group"
40.5473698,-3.6260586,"juliogomez92"
51.5073219,-0.1276474,"peteweller"
22.3511148,78.6677428,"ravikhedar"
8.0018709,-66.1109318,"MAKING2012"
-31.3383669,-64.178637,"2dedos_d_frente"
-34.5068414,-60.8659827,"PaliClerc"
10.6412212,-71.6075383,"PachitoBarrrios"
8.0018709,-66.1109318,"eloina_mogollon"
-28.8166236,24.991639,"LindsayMaasdorp"
23.0131338,-80.8328748,"VladimirSedeno"
52.2460367,0.7125173,"MacebearerThe"
-2,-80,"ManuelEspinozEC"
53.7435722,-0.3394758,"TweetTommo1"
53.4791301,-2.2441009,"Johnludds"
4.5980772,-74.0761028,"juvaniaguirre"
38.7077507,-9.1365919,"G_Waddington"
-33.8548157,151.2164539,"blotography"
7.9805778,-72.097576,"superjg26"
-34.5901045,-58.4667675071926,"SurferRosa1203"
22.3511148,78.6677428,"DeccanChronicle"
6.4550575,3.3941795,"zaltuzzo"
-12.285251,-41.9294776,"demzayat"
48.150058,11.5321102,"potke18"
40.7902778,-73.9597222,"SilSterinPensel"
-17.0568696,-64.9912286,"evoespueblo"
41.3828939,2.1774322,"MattSevely"
35.6681712,10.8926932,"nizarus"
-0.2201641,-78.5123274,"ConsultaFamili"
22.3511148,78.6677428,"OneindiaBengali"
53.45733965,-2.22695880505223,"league_sx"
43.5278137,3.9315347,"NoBruTeam"
43.6044622,1.4442469,"Apamjohnson"
4.6726615,-74.0581744671382,"andersonc72"
54.7023545,-3.2765753,"ShoutOut_Radio"
4.5980772,-74.0761028,"gshernandeza"
19.1334321,72.8882172,"mangesh09510280"
43.4592361,3.4701242,"Nader_Bennour"
28.6517178,77.2219388,"SukhwantBasra"
64.6863136,97.7453061,"OrchidsDark"
25.2627163,51.5377702,"GulfTimes_QATAR"
-34.9059039,-56.1913569,"LiberNan"
51.5073219,-0.1276474,"Belgraviacentre"
46.603354,1.8883335,"Mr_KinG_Ceo"
25.0375198,121.5636796,"seki520"
54.4874141,-0.6155111,"KevinHo98285195"
-32.9822162,27.9047348,"kevinwineSW19"
4.5980772,-74.0761028,"Jhonzziipp"
40.0028028,-4.003104,"AlmuuReyees"
-33.741667,18.975,"PaarlSAfrica"
28.0000272,2.9999825,"aljamaheerdz"
8.09558835,4.41296180365728,"adeniyiokoya"
18.2164282,42.5043596,"Moh_assiri"
42.6384261,12.674297,"gis_sa"
-28.8166236,24.991639,"Paul24worldwide"
43.3696644,130.4369104,"_Sivan_YoonHan"
45.4384958,10.9924122,"spiegati"
25.2856329,51.5264162,"kataraqatar"
5.4091179,-4.0422099,"arolove06"
54.7023545,-3.2765753,"YahooSportUK"
48.866815,2.3010201,"IGFrance"
41.3828939,2.1774322,"javirroyo"
7.1114611,-73.1172869,"El_Oidor"
50.7531232,3.1209016,"CoteMeteo"
48.6443057,2.7537863,"AishaOum"
21.5822247,39.1640396,"saud77094995"
43.6582559,-79.4004918,"GONnamoko"
53.45733965,-2.22695880505223,"LanreHkn"
7.9897371,-5.5679458,"fleekybby"
43.26983495,5.39591166409922,"Payetinhoo"
33.8439408,9.400138,"OmranCartoonist"
25.2859603,81.896732069544,"Avinash82110010"
51.6604863,-0.2706506,"FootyFan711"
25.2232283,55.1594933008754,"SpeculativePod"
10.8677845,-60.9821067,"yannickquintal"
43.311983,-1.897806,"auxtin3"
6.4550575,3.3941795,"olatunjitosin8"
53.0535042,-2.302504,"1StevieKilner"
43.7159395,10.4018624,"binowsky"
48.8566101,2.3514992,"Nofi_officiel"
38.9953683,21.9877132,"MariaTsevdos"
43.6044622,1.4442469,"Ladepechesports"
38.7077507,-9.1365919,"iTechWords"
42.4646033,14.2139199,"Matte0Silvestri"
2.8894434,-73.783892,"HZellmis"
46.603354,1.8883335,"Bantliam"
53.5964097,-2.2904086,"empsolrecruit"
43.8222157,17.6896937,"Its_Dolypizo"
-23.5506507,-46.6333824,"Carlos_Henriqu3"
52.2379891,5.53460738161551,"jansen_mila"
51.5073219,-0.1276474,"casilda1"
59.938732,30.316229,"iambolar"
51.5457996,-0.1027127,"georgetsiokos1"
17.7356214,9.3238432,"kvngArhlex"
9.0980752,7.4824456,"omaakatugba"
2.8894434,-73.783892,"camgthXD"
54.8611124,-1.43201801730217,"CarmenSpinoza11"
-8.0641931,-34.8781517,"vicctortavares"
53.4332616,-2.9640891,"wisnawisnuu"
5.4091179,-4.0422099,"SoumatBerte"
47.3723957,8.5423216,"abseitsch"
45.7578137,4.8320114,"souris69"
49.4871968,31.2718321,"bahisortami6"
45.4667971,9.1904984,"tancredipalmeri"
25.2232283,55.1594933008754,"Top__Tips_"
9.6000359,7.9999721,"247ngnewsupdate"
11.08665565,-73.8803519997939,"Zonarosasm"
6.4550575,3.3941795,"productionalodm"
4.628815,-74.0667233,"Ozkar527"
11.01184845,-74.8086460830206,"carnavalxsiempr"
35.266906,-119.0567707,"DJPeanutwao"
51.5073219,-0.1276474,"Diggasoca"
49.4871968,31.2718321,"bilzerianbettin"
51.5073219,-0.1276474,"activative"
-1.2832533,36.8172449,"Gmwelu"
-0.2117289,-78.5080055,"SonWahanah"
47.2208,-122.4092,"Oreofeloju"
35.7879371,139.903177,"0601_tun"
43.2961743,5.3699525,"Enzooss06"
49.115635,10.754535,"PrashanthNaiduK"
40.0028028,-4.003104,"jackiedeburca"
48.8566101,2.3514992,"omisapro"
55.3500003,23.7499997,"Ingrida11065959"
5.5279556,5.7545334,"ChineduIkedieze"
39.8701066,16.530667,"ingrogna"
42.13606145,-0.0298026627191655,"AnaBandrs1"
10.3529588,76.5119752,"FanportOfficial"
44.8178131,20.4568974,"ForzaKizil"
40.7306458,-73.9866136,"themoosemethod"
9.6000359,7.9999721,"meksclint"
4.7676576,7.0188527,"wizdapilla1"
52.5170365,13.3888599,"GresselGustav"
4.5980772,-74.0761028,"CaycedoConY"
42.6384261,12.674297,"Italian86045585"
43.0326132,-8.8096412,"yzkahchimir"
22.3511148,78.6677428,"DeccanHerald"
-0.7166,36.4332999,"ALICEAMBITIOUS"
-3.427534,36.7085848184899,"shoes_shangu"
58.7523778,25.3319078,"hugoDriverTNT"
-4.7993356,114.5632032,"Galang_Ew"
27.9658533,-82.8001026,"federicoalves"
-3.1316333,-59.9825041,"dinhoneto13"
7.3777462,3.8972497,"cristi_latest"
54.7023545,-3.2765753,"yvette180"
-1.2832533,36.8172449,"inoorotv"
13.0801721,80.2838331,"SamayamTamil"
40.3081807,-3.7302679,"isabaren"
22.3511148,78.6677428,"ndtv"
28.6141793,77.2022662,"Sports_NDTV"
-23.5506507,-46.6333824,"nivaldoprieto"
50.9025349,-1.404189,"priyeshunnadkat"
40.9699889,-77.7278831,"geologochacin"
10.6115886,122.535946336233,"MKhalaifa"
6.4550575,3.3941795,"ridbay"
-22.9110137,-43.2093727,"Cariocas_FC"
40.631006,14.416037,"CA10TM"
33.8439408,9.400138,"fouratsakka"
41.219631,16.067466,"GiovanniDestino"
40.8359336,14.2487826,"SN24it"
51.5073219,-0.1276474,"clustermarket"
52.6361398,-1.1330789,"PeepulEnt"
47.3723957,8.5423216,"MarcLindt"
-22.9839557,-43.2022163,"vitor_silveira"
9.0643305,7.4892974,"timothyolusanya"
52.24115585,1.0466542299927,"SuffolkLibrary"
52.0831636,0.436695043961847,"HaverhilLibrary"
10.3995334,-71.4609626,"kaleb_vzla"
18.1850507,-77.3947693,"Zauvaughn"
45.0677551,7.6824892,"alex31113"
45.4400499,10.9932788,"chiccopub"
50.0596288,14.446459273258,"faerbinho"
-1.036648,37.077523,"KarehuDaniel"
36.7213028,-4.4216366,"sosfactory"
6.4550575,3.3941795,"DijaySO"
-10.3333333,-53.2,"AguiarEdimarla"
4.6617449,-74.0678010056575,"jimmypuentes7"
52.3745403,4.89797550561798,"MarioMelchiot"
9.624388,-73.2125095,"audiomaximo"
39.2169525,9.1128513,"PisuDavi"
46.0634632,13.2358377,"FebbreUdinese"
2.8894434,-73.783892,"Locacienta"
46.603354,1.8883335,"luckybetpro"
41.2889924,36.3294459,"BulutKatar55"
52.290713,-1.780685,"phil_duggan"
6.4550575,3.3941795,"Carrotngr"
8.4963657,4.5480484,"timmy_obed"
31.55176955,-110.245322648446,"BaffourGH"
9.0643305,7.4892974,"Gkellymedia"
25.2232283,55.1594933008754,"Boss_Design"
42.6875966,-2.9507583,"PedroG_Carmona"
51.518189,-0.1070606,"martinxo"
45.1860043,9.1546375,"GliAutogol"
9.6000359,7.9999721,"ZetaNigeria"
46.0050102,8.9520281,"RSIonline"
41.3222312,69.2454152,"marvyndickinson"
40.7306458,-73.9866136,"ClementeLisi"
38.6700009,-9.1599354627121,"RespirarFutebol"
25.0750095,55.1887608818332,"711Realmadrid"
44.9216157,10.2291872,"ilnegoziatore75"
-5.6753455,-76.6390925,"hangerworldit"
40.7902778,-73.9597222,"Mehreta"
52.7954791,-0.540240286617432,"4dru1d"
22.3511148,78.6677428,"vijuinnaite"
-23.5506507,-46.6333824,"Ricofausto1984"
46.0373052,8.953266,"RSIsport"
42.6384261,12.674297,"Blackholesound"
32.9407496,52.9471344,"badrishariff"
53.3497645,-6.2602732,"StarTranslation"
-1.2832533,36.8172449,"KamemeTvKenya"
51.262826,-1.0861976,"SaintKate80"
48.8566101,2.3514992,"Llorna7"
45.4667971,9.1904984,"SOCIALnetbest"
48.6443057,2.7537863,"MeilleurBosman"
28.6141793,77.2022662,"toisports"
-34.9964963,-64.9672817,"elfavro9"
25.0750095,55.1887608818332,"lilianetannoury"
55.7507178,37.6176606,"MKholomeev"
45.775426,-74.013176,"pubcool"
4.5980772,-74.0761028,"carlosramirez88"
42.6384261,12.674297,"I_Repubblica"
52.0977181,19.0258159,"CyberSilentVPN"
40.4167047,-3.7035825,"JacoboCabanas"
-22.5266308,-42.9790687,"flsmaia"
25.2232283,55.1594933008754,"TifoFootball_"
47.3723957,8.5423216,"NMFlemzy"
-35.2975906,149.1012676,"oznavyhistorian"
5.9936938,10.438756,"anilizer_34"
37.3122991,13.57465,"Amil_developer"
35.3396115,33.3194082,"ozgurgezgin"
41.0096334,28.9651646,"socialmgzn"
51.5073219,-0.1276474,"proximityLDN"
25.7793634,55.9346329,"DINGERLEYDELL1"
52.7954791,-0.540240286617432,"RedgraveRohan"
9.6000359,7.9999721,"DStvNg"
52.7954791,-0.540240286617432,"Trigs14"
-34.9964963,-64.9672817,"radioecos"
-15.7934036,-47.8823172,"FernandoRegoBar"
51.4538022,-2.5972985,"BenSteers"
-22.5266308,-42.9790687,"astirasdocaos"
4.5980772,-74.0761028,"dalejandrobm"
-10.3333333,-53.2,"mano97fm"
9.6000359,7.9999721,"BrutNigeria"
3.752828,8.780061,"Pidjiro"
35.3826185,36.4492355,"9995salman"
28.6141793,77.2022662,"poetbelly"
34.5666725,132.753565,"Batosan_apple"
39.970593,-74.710629,"Callum_Beirne"
44.749948,8.527846,"FredAllaJuve"
9.624388,-73.2125095,"HotHotelDeals1"
49.94468135,18.3826251964851,"eduio"
-5.0896403,-42.809588,"rossanabelo"
53.550341,10.000654,"DenisGoldberg"
47.3592835,8.0971009,"HuessyAndre"
32.77423155,-117.072681874943,"LeeKahiu"
2.8894434,-73.783892,"mprieto10"
32.9407496,52.9471344,"nikrooz8"
42.6384261,12.674297,"libero_sTipo"
31.8160381,-99.5120986,"nannieboo"
44.0009649,3.5560447,"7mido"
11.535987,79.4824392,"jinivedcsfc"
54.1775283,-6.337506,"fitzy0707"
42.6384261,12.674297,"darienlevani"
52.7192437,6.46528231556572,"RollingBetter"
45.5643442,17.0118954,"NezavisniHr"
6.4550575,3.3941795,"ebukaeddow"
-22.9110137,-43.2093727,"esportegestao"
2.85795825,37.7154891859004,"Hodiafrica"
46.603354,1.8883335,"Bonsplansagogo"
42.6384261,12.674297,"BrussVitto"
-37.7876214,175.2813186,"nzSoccerShop"
11.9918671,8.5303654,"hadi_hd1080p"
51.5073219,-0.1276474,"KNXtoday"
52.7954791,-0.540240286617432,"IIBrandyaII"
-28.746111,31.897222,"THABANIMYEZA3"
40.19531445,44.5146085133621,"SwooTV"
6.698081,-1.6230404,"AkwasiNas4"
52.2574393,-1.1639598,"scook9914"
53.7414271,-1.72020037667772,"markwaite1"
34.257038,-85.1646726,"lauranaka"
13.0801721,80.2838331,"hotgirlz100"
53.8389401,-1.6399639,"HorsforthSMAFC"
44.3973477,-122.481748,"morganlambert"
49.1196964,6.1763552,"titiheb"
55.9496416,-3.1902352,"harpandcastle"
50.05204115,36.2047325007985,"JF991"
51.5073219,-0.1276474,"005e5n"
52.333333,-1.583333,"warkslibraries"
44.4936714,11.3430347,"Pall_Gonfiato"
60.1674086,24.9425683,"AirHelpSuomi"
-1.2832533,36.8172449,"IdahWaringa"
29.0000001,119.9999999,"C15742109"
51.9579124,1.2686199,"AsifBurhan"
5.5600141,-0.2057437,"sins19kojohoho"
-22.9110137,-43.2093727,"delafuentepablo"
5.5600141,-0.2057437,"ninetyone89gh"
53.7974185,-1.5437941,"1call4Tech"
9.6000359,7.9999721,"sweetfm1071"
49.1094836,7.0708865,"SarregueminesFC"
40.7364228,-73.8651888078038,"bensalvi23"
51.5770265,-0.1266994,"ronster1703"
43.6044622,1.4442469,"GDTSB"
12.8704957,44.9794032,"OmarDXB"
25.25401995,55.3295514863091,"attiya10"
30.048819,31.243666,"aisma654"
25.2232283,55.1594933008754,"SpiceUKOnline"
48.710678,44.516804,"Fanholst"
45.178758,8.59484,"BetterCallCris"
-27.8165664,-50.325883,"ricardocordova"
58.5909124,16.1903511,"MiaVest66"
52.2385239,-0.902493,"DominicMoffitt1"
2.85795825,37.7154891859004,"fatumabdulkadir"
22.3511148,78.6677428,"AskApollo"
22.3511148,78.6677428,"Mkbti"
-23.1681782,24.5928742,"MavenJefferson"
42.8851442,13.9155354,"GBMartinsicuro"
-29.6477778,31.0633333,"s_alsharmi"
31.9853304,44.9236266,"DalyIraqia"
41.8933203,12.4829321,"TizianaPikler"
54.5516073,-6.0064319,"cameron2604"
-45.8739282,170.503488,"RobAttfield"
24.6319692,46.7150648,"alsubaie1_s"
38.9597594,34.9249653,"STransferium"
6.4550575,3.3941795,"9jajuice"
46.550058,14.7006635341576,"gaskus10"
22.3511148,78.6677428,"HospitalsApollo"
-1.9368609,30.0787659,"robertdrly1"
53.9921491,-1.5391039,"absoluteci"
48.8566101,2.3514992,"InterNebest"
44.4936714,11.3430347,"RD416"
30.36610385,-9.52436557805241,"RobertoGrassi"
28.1083929,84.0917139,"Prabhatkc9"
0.642715,122.5909774,"aelzodiac"
19.1334321,72.8882172,"Chai_vis"
46.3356506,8.753706,"laregione"
52.7736922,-1.5599033,"fakrogb"
41.3642387,2.100942,"kaiserleiva98"
53.3497645,-6.2602732,"MarkPaulTimes"
-6.8638235,39.2551949,"TheSmash3D"
11.1847583,-0.9899514,"ssekandichaudre"
42.5454124,-6.5938719,"brunimetal1"
43.9493143,4.8060329,"hmd_amiamuo"
56.1721652,92.6740774,"Sergey_Sergey_G"
-32.602355,151.113288707312,"sandyhunter2"
40.7306458,-73.9866136,"resistard"
51.5073219,-0.1276474,"sauravsarkar518"
41.8933203,12.4829321,"Fare_Cultura"
49.4871968,31.2718321,"Eyadahali"
30.048819,31.243666,"NouranGad2"
37.47427625,14.1385351189452,"Hermesjuventino"
53.3497645,-6.2602732,"MarkHennessy"
-1.2832533,36.8172449,"BambaTVKenya"
25.0750095,55.1887608818332,"omarakayleh"
51,-0.416667,"WhiteandBrook"
48.86443435,2.321660839308,"sevanova"
40.2109404,-75.2782317,"glasspirations"
50.6407351,4.66696,"filipnaudts"
18.1698225,-76.9139075902205,"Jerico_kane"
25.2232283,55.1594933008754,"Lil_Kish"
51.5073219,-0.1276474,"FernandoMontan0"
52.6361398,-1.1330789,"ICSHC"
31.9515694,35.9239625,"mahmoudjber1"
47.0977044,-88.4131758,"BSpacepirate"
55.3500003,23.7499997,"antuoshka"
-4.7993356,114.5632032,"KakaWiinn"
31.9515694,35.9239625,"Kareman61951308"
51.5073219,-0.1276474,"AlSarp1"
52.0977181,19.0258159,"bartas719"
44.841225,-0.5800364,"fc_sport"
26.4367824,50.1039991,"Barsa9090"
41.3828939,2.1774322,"FajarNasser"
52.8678344,-0.2402079,"AleZamps"
36.8482858,-2.4465691,"JGHYAM"
29.2733964,47.4979476,"EuroFBN"
42.9280246,-8.160584,"sportmoda_"
6.9349969,79.853845,"imranhashtag"
30.048819,31.243666,"nermin_sameeh"
40.4071708,49.8461271,"Ibrahim_Alqasim"
51.5073219,-0.1276474,"ThomasLyte"
51.2325184,-0.3306724,"Jaydeeksy"
41.8933203,12.4829321,"nellosplendor"
54.8948478,-2.9362311,"denisdevlin1"
37.1635982,-121.6471174,"HamishBromley"
41.8933203,12.4829321,"davide_capano"
53.5450793,15.5661586,"wegorzewo101"
45.4667971,9.1904984,"v_peschechera"
40.8359336,14.2487826,"cn1926it"
9.0643305,7.4892974,"_abdooul"
-6.4024822,106.0785744,"Kurniawan_Dery"
51.5073219,-0.1276474,"AnatomyStuff"
52.2319237,21.0067265,"SmartCity_Blog"
33.88922645,35.5025733017293,"christellenhage"
51.48808725,-0.302524029704623,"freelander97"
43.9508807,16.2098036,"terstenagranit"
28.1083929,84.0917139,"aniskarna"
51.5844701,-0.0188186,"huwrichards3"
8.0300284,-1.0800271,"meshachayim"
6.4550575,3.3941795,"web24services"
24.0889015,38.0666798,"umar_haddad"
46.7985624,8.2319736,"crofin67"
6.4550575,3.3941795,"BroadwayAfrica"
-29.861825,31.009909,"MyakaPrincess"
45.4667971,9.1904984,"ennebert"
22.3511148,78.6677428,"AdarshThakur03"
-1.27793655,35.4774269321377,"MwauraSgt"
40.0028028,-4.003104,"TanInoportuna"
23.4559809,85.2557301,"MrsMeenaKumari"
1.5333554,32.2166578,"FriendsOf_URA"
50.4501071,30.5240501,"helselinki"
-12.0294672,-72.8601102,"MohdJazzaf"
46.151042,13.055904,"zanzy82"
41.0716178,29.0305381519225,"james_ceymisbd"
52.9576645,-1.1548135,"blackwelltrent"
50.000678,-86.000977,"Fredrick1969"
36.1662859,-115.149225,"VikiMeki"
51.5073219,-0.1276474,"Reeev0"
28.6141793,77.2022662,"iamabhimanyuuu"
43.7283874,-79.34914879325,"KobirMl"
38.7311123,-95.2414104,"Sameenu"
32.9407496,52.9471344,"chobastani"
53.7414271,-1.72020037667772,"YCRDistribution"
-6.1753942,106.827183,"rickyandika45"
63.2467777,25.9209164,"JantunenKaarina"
45.6598951,8.7932013,"zanovels"
40.033265,-7.8896263,"Radio_Comercial"
45.4667971,9.1904984,"bois_m"
-6.8142737,39.2803756,"magambojr_gold"
32.8815469,13.3468421794098,"oldmommatajuri"
51.5073219,-0.1276474,"ShoptheAirport"
54.7023545,-3.2765753,"dutyfreehunter"
9.6000359,7.9999721,"zeusbetco"
42.5300624,-78.4727976,"TheYorksTimes"
40.897829,16.842487,"EusM1985"
10.3825318,7.8533226,"Anis747"
-28.8166236,24.991639,"TheGualla_Cindi"
6.4550575,3.3941795,"mpiredivine"
40.3768911,71.7875888,"asperouzb"
41.3828939,2.1774322,"mediaadgo"
40.3936294,47.7872508,"karlsantix"
26.8234472,18.1236723,"om_msm"
36.1568902,-95.9915313520408,"NatalieAbida"
51.5073219,-0.1276474,"samcunningham"
35.7006177,51.401375,"zarinfam"
59.6749712,14.5208584,"Bayasakov"
41.8933203,12.4829321,"AndrewMari1988"
21.0000287,57.0036901,"MAlammeri"
14.4750607,-14.4529612,"mouhamedlaminen"
25.2232283,55.1594933008754,"FiveStarFooty"
53.609832,-6.1861964,"declan1965"
47.5044752,19.1251107,"moonbeam655"
42.6384261,12.674297,"wwlanguage"
6.4550575,3.3941795,"iammachenry"
22.3511148,78.6677428,"shijucalicut"
9.6000359,7.9999721,"sobcaonline"
51.5073219,-0.1276474,"TdotStevens"
49.7477415,13.3775249,"AlvynTC"
39.9355788,68.7251431680087,"yahyohon87"
-1.2832533,36.8172449,"eaterieskenya"
45.6209,9.768893,"FedericoGer"
42.6384261,12.674297,"direttastream"
13.7538929,100.8160803,"Nannii_Park"
57.1456794,-2.0957313,"FootTheBall"
35.6580389,139.7515632,"kohnosuke2008"
41.8933203,12.4829321,"barbapress"
33.8439408,9.400138,"Leaders_Tunisie"
47.5517277,7.5361588,"joelat___"
31.1667049,36.941628,"omomani"
-28.8166236,24.991639,"mpilo_simon"
54.7023545,-3.2765753,"HistoryWO"
51.5073219,-0.1276474,"thornymedia"
9.9175125,8.8979401,"cr8ivmind"
5.5600141,-0.2057437,"Seth_thepace"
1.4419683,38.4313975,"OntitaJared"
40.4167047,-3.7035825,"acadefescuela"
52.7954791,-0.540240286617432,"James_Pr0"
28.6141793,77.2022662,"SensingSenses"
51.5073219,-0.1276474,"chrislyles47"
-1.2832533,36.8172449,"CarolRadull"
-1.2832533,36.8172449,"mysakenya"
51.5073219,-0.1276474,"GazFootballNerd"
44.89666,8.8641282,"RadioEnjoy_2010"
-22.2800004,-42.5325303,"Driendl754"
40.4167047,-3.7035825,"carlosmtnez7"
32.9407496,52.9471344,"soha69963673"
54.8611124,-1.43201801730217,"cookie_jaan"
48.9031,2.48291,"therealmourad"
22.3511148,78.6677428,"KulkarniLax"
-26.0416667,27.9766667,"KGenius247"
30.3308401,71.247499,"globalsentiment"
46.603354,1.8883335,"ArbitresSAFE"
20.6831842,76.2810542,"HarpreetS95"
42.6384261,12.674297,"FelixPistor"
50.4501071,30.5240501,"Kateryna_Kruk"
53.0781867,-0.8100707,"brandnewark"
-34.9059039,-56.1913569,"eguanella"
36.1943457,-6.0281171,"catorceLM"
42.7355124,12.7363357,"karda70"
36.7014631,-118.7559974,"Nick_3014"
-1.2832533,36.8172449,"FogoGaucho"
49.4871968,31.2718321,"baraysagheer"
55.7507178,37.6176606,"walterianets"
52.4776875,-1.8948516,"thepenmuseum"
35.1968074,136.864835232295,"yukionna27"
53.5914309,-1.3249746,"AdvancedDiesel_"
6.3330586,5.6221058,"criskel07"
43.4433565,6.6363623,"kamineric"
48.8566101,2.3514992,"BF_Exportsport"
48.8566101,2.3514992,"tbolot10"
45.0677551,7.6824892,"AlexRicchitelli"
18.5203062,73.8543185,"coolpritish98"
50.95157965,-1.74513176759607,"MPSBoundsGreen"
51.5073219,-0.1276474,"ThomassFulham"
59.3251172,18.0710935,"TobiasBillstrom"
6.433333,3.416667,"ritadivaokoro"
9.6000359,7.9999721,"babasolution"
34.2331373,-102.4107493,"Officialdgims"
9.6000359,7.9999721,"My9jastreetLive"
6.4550575,3.3941795,"082mp3official"
22.3511148,78.6677428,"KhelNow"
44.4936714,11.3430347,"Giovaguerrato"
-1.2832533,36.8172449,"erbybwnairobi"
-50.602539,165.962208,"uzmananalizler"
51.5073219,-0.1276474,"MsSaraAishaKent"
52.5170365,13.3888599,"flascheyeah"
51.5073219,-0.1276474,"CocaColaEP"
-1.2832533,36.8172449,"BambaSports"
51.4785568,7.5533645,"QantumXcitation"
31.7835199,20.6215663,"Ibrahim_alobidy"
-24.7761086,134.755,"WillHillWolf"
52.7954791,-0.540240286617432,"KingAlizLFC"
9.6000359,7.9999721,"Chukiepablo1"
59.9132694,10.7391112,"khanaziz84"
50.6407351,4.66696,"ASolim"
42.4646033,14.2139199,"Pgreco_"
25.2232283,55.1594933008754,"ColossusBets"
53.5415797,-2.1147831,"keast_rob"
31.5164908,74.3294942,"Jamil00636817"
0.3177137,32.5813539,"Kissakaps"
33.6013646,132.8185275,"Keizou_Okada"
51.5073219,-0.1276474,"OFFICIAL_JR3"
-24.7761086,134.755,"bozinhsa"
40.7643476,29.9279311,"bedirhannn41"
4.4954427,38.6594263,"Manifattura40"
50.7111314,-2.4398486,"LaurenOddy"
43.5298424,5.4474738,"ergolefevre"
6.4550575,3.3941795,"adebayo_matthew"
28.402837,77.3085626,"naukricentercom"
45.88975045,6.135465100226,"JuBabaud"
3.05650145,101.525085119032,"NoorHishamMN"
6.2183136,6.9531842,"OselokaHObaze"
40.0028028,-4.003104,"bzar_es"
44.7239578,37.7690711,"igor0131gt"
41.8933203,12.4829321,"Llukas79"
51.6553875,-0.3957425,"jonesvinnie_"
39.5079538,2.5315622,"MoneytransWorld"
51.4538022,-2.5972985,"finderskeeperss"
30.7835637,30.9983376,"salahaldeen6666"
42.6384261,12.674297,"Il_Delicato"
48.429201,-123.365479,"garybartanus"
43.5719729,-94.1031625,"zikirillahi"
28.48895715,77.0107837846576,"anurag_singh25"
51.18270415,4.23419578644154,"24pharma"
40.7509216,14.4895620911152,"LucaPicafizz"
51.5073219,-0.1276474,"_JordanJBryan"
42.9525328,13.8807144,"Gigadesires"
63.2467777,25.9209164,"Petrofinn"
33.98821605,-118.47329061789,"gvegap"
25.0750095,55.1887608818332,"Emirates247"
26.3039999,50.1960237,"NawafWaleed_88"
35.3594614,140.189299948902,"UTsukasa"
41.1872212,16.6714179,"Juventushi5tory"
59.3251172,18.0710935,"LindquistLord"
9.6000359,7.9999721,"youngestdj_j2"
6.4550575,3.3941795,"i_am_ochofie"
-29.861825,31.009909,"Bongiwe84029419"
25.0750095,55.1887608818332,"AliKhaled_"
43.8672392,10.2506055,"GorskiPark"
40.9847487,29.1067199,"Engin_Can08"
52.2319237,21.0067265,"AreavisOfficial"
-34.9281805,138.5999312,"DemiCassiani"
25.2856329,51.5264162,"JoGasiorowska"
51.5455033,13.9581679,"mxx_ibraheem"
53.7435722,-0.3394758,"harvester_hull"
45.0677551,7.6824892,"GianPaoloScarpa"
-29.6826112,-51.4687455,"Vijestime"
41.0096334,28.9651646,"Valibey0634"
52.865196,-7.9794599,"garyw86"
31.5164908,74.3294942,"newz_plex"
31.6268604,116.8782856,"ikkWKBvySDGSUng"
45.0004614,7.6847543,"ItaliaMobilesrl"
49.4871968,31.2718321,"malefictum"
59.3251172,18.0710935,"BjorklundVictor"
50.6407351,4.66696,"Runaway_Baby1"
9.9325427,-84.0795782,"rave021975"
6.4550575,3.3941795,"garrickkome"
45.0677551,7.6824892,"Maximsx"
26.8381,80.9346001,"LaPlaceSarovar"
56.7861112,-4.1140518,"footballblether"
51.3713049,-0.101957,"luketcarey1989"
37.3297085,-121.9031599,"Metztli_IT"
40.1742781,18.1678388,"albertomarti"
35.7073394,139.7512504,"dx1X5k3aqMibWQF"
48.76203735,1.88713756212644,"ibtihal78920"
25.0750095,55.1887608818332,"FFTArabia"
52.0799838,4.3113461,"omniprasan"
36.5748441,139.2394179,"Minaminogaoka"
39.9059631,116.391248,"derickFT"
55.7029296,13.1929449,"redniron"
-28.8166236,24.991639,"Siphiwe20500822"
6.4550575,3.3941795,"DenimNigeria"
22.2793278,114.1628131,"DiariesHongKong"
35.673011,140.083819,"yanekan"
-27.4511235,-58.9865196,"Nel24Pilu"
53.58372785,13.0637987031018,"VornameX"
22.3511148,78.6677428,"rickynaldo7"
-26.205,28.049722,"Thakudip"
41.1257843,16.8620293,"ENRY_N10"
19.4326009,-99.1333416,"Monguther"
51.5073219,-0.1276474,"Keirbaker96"
34.257038,-85.1646726,"Zatomas"
-29.116395,26.215496,"RefemetsweMokg1"
51.5073219,-0.1276474,"jatowens"
25.2232283,55.1594933008754,"HappyFeet_1402"
10.5053491,-66.9147206,"Md_RMCF"
37.5726028,-85.1551411,"colsandersfirst"
40.8359336,14.2487826,"leocicco"
47.82035305,35.1329136267102,"Biovizir"
4.4923898,-75.7396016646567,"NEWSam_Armenian"
4.686267,11.9414512,"AizenKenzo"
5.5600141,-0.2057437,"Belaidoo"
45.4667971,9.1904984,"gio_prankster"
53.3806626,-1.4702278,"AtkoHistory"
-37.8142176,144.9631608,"DavidBongiorno"
7.3777462,3.8972497,"CollaboBet"
-10.3333333,-53.2,"Iasmimsilvaaa"
13.1169726,80.2571242,"LakshmipathiLMN"
42.6384261,12.674297,"giornali_it"
34.2331373,-102.4107493,"ticbhoypaul"
12.368148,-1.527085,"myouedraogo"
52.6520552,-0.4804363,"FOODWINETRAVEL1"
54.7023545,-3.2765753,"LucaVisualFx"
39.9215219,32.8537929,"avmANKAmall"
41.8933203,12.4829321,"InfoAmb"
30.5903474,33.7052032,"khaledessam_"
41.8933203,12.4829321,"fabriziobocca1"
6.4550575,3.3941795,"aloibshow"
41.8933203,12.4829321,"tantosport"
42.6384261,12.674297,"weeral_it"
33.586154,130.394466,"4FDhXDW3AkThEMd"
42.6384261,12.674297,"SpremEnganche"
6.4550575,3.3941795,"stokes_ng"
0.2004978,35.1011501,"4lvo_"
26.1223084,-80.1433786,"ritaverreos"
51.92779805,4.48862326925829,"Ssjaak"
50.8036831,-1.075614,"peadubya66"
51.0834196,10.4234469,"Michael_leipzig"
32.1862321,34.9771488,"EremNews"
37.3886303,-5.9953171,"Ruben_DjBnis"
22.3511148,78.6677428,"Sunny24945995"
-26.44723845,153.091478483293,"CarecoHD"
-33.928992,18.417396,"David_Minchella"
48.8566101,2.3514992,"SurenGeorges"
9.6000359,7.9999721,"nas2click"
51.5073219,-0.1276474,"Hussein_62"
25.0750095,55.1887608818332,"PilarYamila"
43.2630051,-2.9349915,"Lakeli1"
28.5602417,77.3384751869402,"pahallavi"
35.4342935,139.374753,"eitaso_yacchy"
38.2653181,-0.6988488,"JuanviMora"
6.4550575,3.3941795,"squeezerecords"
51.4818111,7.2196635,"JensAusBochum"
9.6000359,7.9999721,"PaulEmekaEze"
49.4871968,31.2718321,"VAksenoff"
50.8704524,4.4021602,"GenNeirinckx"
1.2904753,103.8520359,"venuetoeat"
51.456659,-0.9696512,"ChrisHernon"
-5.6753455,-76.6390925,"PrizeTwatBook"
53.45733965,-2.22695880505223,"von_andi"
6.4550575,3.3941795,"lokalfmNG"
46.7323875,-117.0001651,"daniil_ndg"
36.5748441,139.2394179,"FootballTribeJP"
44.8013678,10.3280833,"JakeJaspers"
48.16282835,-2.68414734452184,"GradlonFan"
6.4550575,3.3941795,"phinnyisraelceo"
51.2715316,-0.341452351129091,"longygas"
54.7023545,-3.2765753,"WTSarge"
51.1089776,17.0326689,"FilipK71"
-6.26289085,106.882228946928,"lukman_levine"
7.3777462,3.8972497,"Kingjuhel"
51.5073219,-0.1276474,"FivePitch"
48.2083537,16.3725042,"DarioMaglov"
39.7837304,-100.4458825,"AymasAqui"
-10.3333333,-53.2,"Kamilooficial"
9.624388,-73.2125095,"WIOMAX_PA"
9.9633864,76.2536614,"aaveshamsports"
53.7828969,-1.0633482,"JakBen8"
52.5050033,-1.96439612333127,"VelvetSister"
53.3497645,-6.2602732,"Bigburlypanda"
19.4326009,-99.1333416,"soy_kedl"
25.6242618,42.3528328,"Mamdooh_Alayady"
-1.2832533,36.8172449,"chirie09"
49.4871968,31.2718321,"quadrokot1"
7.3777462,3.8972497,"EmmyLarge"
33.7680065,66.2385139,"KhanZada632"
51.5073219,-0.1276474,"TravelingBlade"
43.653963,-79.387207,"ssmw1"
-1.2832533,36.8172449,"elijah_ouko"
-6.032761,106.1636947,"Muhtadi717"
43.5499749,-96.700327,"familydisaster"
4.6617449,-74.0678010056575,"DTempus"
47.4799078,-122.2034496,"Nuurudinshariif"
38.1112268,13.3524434,"L_Moretti_Foto"
2.8894434,-73.783892,"HINCHAS"
-16.680882,-49.2532691,"_ViniciusBorba"
48.199792,26.5966606453633,"LTeisanu"
50.4501071,30.5240501,"megashmatpower"
33.4485866,-112.0773456,"TbBrame"
47.4739884,-0.5515588,"Idir_Bechar"
-25.836389,28.180278,"nealcol"
4.5980772,-74.0761028,"AndreAxul"
9.6000359,7.9999721,"MrAbba9"
56.7861112,-4.1140518,"DenvirMarketing"
17.3616079,78.4746286,"Dhyani1811"
-4.7993356,114.5632032,"tribunnews"
-26.205,28.049722,"FlysaaCare_AFR"
-28.8166236,24.991639,"flysaa_care"
45.4667971,9.1904984,"stefano_cimini"
35.6828387,139.7594549,"nori_jyosoko"
45.4667971,9.1904984,"GPeppe34N"
4.5980772,-74.0761028,"JeissonFPG"
51.3351685,7.26320898126877,"Northwe10991092"
-34.6828668,-58.4484441,"Quelchepassa"
48.2083537,16.3725042,"flip_the_truck"
4.7676576,7.0188527,"EmperoR_AquiLA"
42.6384261,12.674297,"pccpla"
37.9587465,-76.7580211,"maribiel1"
33.2588817,-86.8295337,"IdeologyWars"
35.9488491,139.6393735,"tomoya_zn6"
4.7676576,7.0188527,"KennethGbarabe"
53.2352134,-1.4264097,"SJT01"
6.4550575,3.3941795,"bobseto"
51.5073219,-0.1276474,"milk_measurer"
-6.3042012,107.307897,"agussukma7081"
5.4091179,-4.0422099,"Canaille987"
1.3014202,103.8391309,"GuyTotti"
46.603354,1.8883335,"PhillyReader"
-33.4377968,-70.6504451,"Evandrotapia"
43.3383176,-1.7888095,"GariGaraialde"
-6.1753942,106.827183,"tribunSUPERBALL"
34.834009,135.5539509,"yokochin_nobu"
34.6968642,139.4049033,"wsdnet"
38.9675925,-0.1803423,"martinfd78"
44.841225,-0.5800364,"Manuchip"
28.6141793,77.2022662,"sportsflashes"
37.274532,-79.9602096795782,"BabzLWA"
39.7837304,-100.4458825,"Yaxina"
34.6677915,135.1641816,"natsuki_m_8"
53.4791301,-2.2441009,"UrielSalgadoUs"
54.3817696,18.6055111,"EreaAndrzej"
2.8894434,-73.783892,"demonio_red"
9.0643305,7.4892974,"PrincessChi"
22.0000001,-102.5000001,"Aldo_Serrantz"
49.8238186,-97.1074436,"PubliusofCA"
61.8027147,22.3965338,"NarviHeli"
5.5600141,-0.2057437,"iamkrobeagh"
31.4232651,74.2810093,"meshoo_skr"
19.4326009,-99.1333416,"CesarEnriqueMC"
45.6845106,-63.9637863,"cards79"
-24.38132715,-65.11212115,"Agusperedo2"
-26.0964372,28.2336325,"NSS_Centre"
43.7698712,11.2555757,"dariocafiero2"
6.4550575,3.3941795,"teeman14"
11.9918671,8.5303654,"chudiokem"
34.6968642,139.4049033,"dyon_bonta"
-33.928992,18.417396,"menzikulati"
48.8566101,2.3514992,"ChatSuffit"
41.3828939,2.1774322,"tv3cat"
43.2529751,-6.4913841,"jebepe33"
25.2017152,55.1542459,"EdgarBL1993"
52.2319237,21.0067265,"bartoszdominiak"
48.8566101,2.3514992,"Smiling__B"
6.4550575,3.3941795,"obiasika"
40.4167047,-3.7035825,"julen9rivas"
47.6201461,-100.540737,"EndGameShowWW3"
42.6384261,12.674297,"Fds_2_"
49.4871968,31.2718321,"LostInBombas"
34.6968642,139.4049033,"fromthemy"
51.9191343,30.8243039,"pavlo_fedosov"
41.3874344,2.16903130986842,"elsmatins"
39.7837304,-100.4458825,"J_TheLastDragon"
41.1872212,16.6714179,"Giu75Guarini"
51.3351685,7.26320898126877,"Johnnybez7"
23.7593572,90.3788136,"ashikruhul"
64.742143,20.9719237558469,"katarina19623"
34.6968642,139.4049033,"d1ce_"
43.9792797,-120.737257,"MMsosm9"
40.0757384,-74.4041622,"CathyYoung63"
55.1888871,-3.5968581,"R_Tostao"
50.4501071,30.5240501,"_truth_only"
51.2211097,4.3997081,"johantuyaerts"
36.59685,139.888639,"mofumofu_0407"
-33.928992,18.417396,"TeekyTk1"
43.653963,-79.387207,"SBTheCritic"
40.7752148,14.5873622,"ANCAFEBIA"
41.8933203,12.4829321,"Fantacalciology"
-28.8166236,24.991639,"Spiwo"
-2.1704143,-79.9050240842775,"StefanoFaggioni"
24.4768783,90.2932426,"DurbinMedia"
41.727033,13.0041576,"luisati13"
33.4485866,-112.0773456,"McCrueltyIsEvil"
52.99367485,-1.13847318187173,"garypoux"
42.6384261,12.674297,"alexronga"
49.4871968,31.2718321,"lzedmitryy"
59.3251172,18.0710935,"bullbearwhat"
31.8160381,-99.5120986,"ASillyOldRam"
6.4550575,3.3941795,"anisraheem"
6.4550575,3.3941795,"ComanStallion"
8.09558835,4.41296180365728,"eta_habyb"
55.6867243,12.5700724,"ddfreiling"
8.4963657,4.5480484,"latestchagas"
52.5050033,-1.96439612333127,"johnbryan210"
-21.16636,27.502515,"PJB_569"
13.7538929,100.8160803,"eyenizzz"
51.7520131,-1.2578499,"philmcnulty"
59.4372155,24.7453688,"Atamansikka"
38.3880155,140.9761025,"chanso0944"
39.7837304,-100.4458825,"Kkzahu"
59.3251172,18.0710935,"AlexandraIvanov"
36.508976,-4.88562,"JoseAntGomz"
43.4623102,-3.8101067,"jireale"
19.4068894,-99.0295423,"chuchorenegado"
6.2443382,-75.573553,"jemxime"
48.8566101,2.3514992,"belaissam"
39.7837304,-100.4458825,"Seedofcheif1"
0.3177137,32.5813539,"irumanyika"
52.7954791,-0.540240286617432,"alya95x"
51.0834196,10.4234469,"JulianRoepcke"
40.4167047,-3.7035825,"manucascallana"
52.2319237,21.0067265,"Mr__Target"
38.5116568,72.4676801,"gatis_r"
51.5073219,-0.1276474,"djosiahlake"
42.6384261,12.674297,"miriam67124254"
6.4550575,3.3941795,"rafreo_"
47.6038321,-122.3300624,"1SteelerFanatic"
6.4550575,3.3941795,"AkinbodeTa"
-28.8166236,24.991639,"IOLsport"
22.5677459,88.3476023,"toposant55"
4.6617449,-74.0678010056575,"diego_munevar"
52.3745403,4.89797550561798,"PassieVoorAjax"
51.5073219,-0.1276474,"iandeeley"
-6.8638235,39.2551949,"sanaees2"
-1.2832533,36.8172449,"LidyanaMaalim"
48.8566101,2.3514992,"AlexDWade0817"
55.670249,10.3333283,"journalistpip"
23.7593572,90.3788136,"shayansk"
58.7544913,17.0118143,"ThomasBohlmark"
59.3251172,18.0710935,"NiklasGillstrom"
43.7283874,-79.34914879325,"ProsperBuild"
32.7174209,-117.1627714,"zoltanza"
34.678147,135.597728,"ykun_chinju"
-26.1347819,25.6546729,"Sen_farouk"
51.50045465,-0.131062284921223,"AllSportDB"
21.5822247,39.1640396,"ABBabsail"
43.6112422,3.8767337,"louis34fr"
2.0119217,103.446608,"malayobserver"
18.833333,-98,"luiscondadoc"
33.7490987,-84.3901849,"richi0219"
53.0162014,-2.1812607,"JordTaylor_92"
34.2130815,133.8485311,"sterben__6"
59.6749712,14.5208584,"Mattias_K"
9.33921865,-83.6445855817216,"cervantescrc"
42.6384261,12.674297,"RenzoRevello"
-25.2959916,-57.6311196,"andistrubing"
19.4326009,-99.1333416,"PedroAmador"
20.525151,-97.4594114,"sjediael"
-23.8319444,30.1611111,"Pee_KaY78267"
45.6209,9.768893,"Stocca64"
47.5044752,19.1251107,"tolfaa"
31.5164908,74.3294942,"Waqtnewstv"
47.3900474,0.6889268,"julcharyk"
34.6968642,139.4049033,"yukiqlair"
0.3177137,32.5813539,"NicholasKalungi"
35.6828387,139.7594549,"KEN5335"
36.7014631,-118.7559974,"Huuungrybear"
-22.1225167,-51.3882528,"itsmathsouza"
35.4342935,139.374753,"upjohn1717"
38.796376,-85.845637,"kccwearps"
34.054935,-118.244476,"Karina_lovesU"
-33.4377968,-70.6504451,"luchogonzalez72"
41.513477,-6.1534803,"MikiSalinas10"
35.5623785,139.442781736362,"fevluarysn0w"
30.3308401,71.247499,"NaumanShafi"
19.4326009,-99.1333416,"ulch_"
6.4550575,3.3941795,"myloadedbaze"
39.2169525,9.1128513,"bomeluzo"
-26.205,28.049722,"henriper"
7.5484047,4.4978307,"jamezjagz"
26.8381,80.9346001,"shianewsroom"
26.8381,80.9346001,"Shiaqaumnews"
-29.3396846,31.2888955,"SiyabongaSnex"
42.4164974,12.1039438,"CriScapigliati"
37.1830197,-3.602192,"RonnieDogFutbol"
6.4550575,3.3941795,"Hollucrystal"
41.3828939,2.1774322,"FootyLegend_"
28.6141793,77.2022662,"Sanjeet1712"
-15.4164488,28.2821535,"BuyoyaJonah"
-25.35033975,31.2592587609134,"NathieMbhele"
4.81804785,-75.6888617199333,"yfmradio"
41.6079555,2.2876008,"Laurasbt"
37.7100277,127.2618187,"tha_king_aj"
59.6749712,14.5208584,"AndersGamberg"
30.3308401,71.247499,"shemreznauman"
-26.0221753,28.2014478,"MORRISMocheche2"
31.8160381,-99.5120986,"MexicanTwinkie"
-33.928992,18.417396,"KhayaCishe"
-15.4164488,28.2821535,"KukaMulenga"
-1.2829581,36.7866339022112,"Abdisalamosman"
22.3511148,78.6677428,"cts2007"
36.750756,5.0647,"RiiadBenayache"
22.5677459,88.3476023,"SenSukarno"
50.4501071,30.5240501,"RogerYar"
41.8523094,1.5745043,"rami4barca"
43.5515198,7.0134418,"dandy_cannes"
40.0028028,-4.003104,"luisotobajas"
-12.2045176,44.2832964,"Lyadish"
29.7589382,-95.3676974,"RadioDorian"
-1.2832533,36.8172449,"korirkipvin"
43.513671,-79.882817,"AhmedAbdullah04"
22.3511148,78.6677428,"ShivamRajpoott"
48.1371079,11.5753822,"sanjitshresth"
38.2653181,-0.6988488,"atr_ngl"
45.4667971,9.1904984,"StePeduzzi"
53.45733965,-2.22695880505223,"Actually_Soccer"
4.5980772,-74.0761028,"Nona_Staff"
34.6401861,39.0494106,"sham4all_s"
41.9747186,21.487584521292,"imedime"
43.940845,-82.712712,"Joni_Looking"
-42.9165061,-71.3363881,"FCabbana"
41.461618,13.666709,"Aquila_Eddy"
22.3511148,78.6677428,"manus_03"
59.6749712,14.5208584,"PeterOlsson"
4.8142912,-75.6946451,"guskno08"
19.3901819,-99.0950600611131,"TujyeKunywa"
28.6141793,77.2022662,"BrandVedas"
12.9791198,77.5912997,"prerna_sports"
19.3464131,-99.0024481,"pamecruzdp"
28.1083929,84.0917139,"sagarmathaweek"
19.7027116,-101.1923818,"CorporidesApp"
38.4087993,-121.3716178,"CMirazo"
-1.2455264,-78.6284175,"_PaoRocks"
50.8220399,-0.1374061,"SamGruet"
49.9584438,-110.2732606,"wtvsdude"
8.0018709,-66.1109318,"KuspideSports"
6.2443382,-75.573553,"CamiloNazzar"
4.7676576,7.0188527,"umarfarukbello"
46.7985624,8.2319736,"rajantr"
42.6978634,23.3221789,"Mishoka"
-36.3789925,-60.3855889,"Camucam09BTR"
51.0834196,10.4234469,"MarcusVegetable"
18.833333,-98,"irazuHdez"
40.6801561,14.7596754,"maxio75"
52.7952408,18.2595624,"radek_mlcrk"
-26.205,28.049722,"vvsportsradio"
25.9481487,-80.3169953,"cerati9"
44.5262279,11.2502129,"Ale___Pesca"
25.2232283,55.1594933008754,"AbsoluteDice"
49.5999517,9.4329361,"cmueller83"
6.4550575,3.3941795,"muimuiatunnise"
22.2793278,114.1628131,"Albert_CHPM"
-27.942,-52.923085,"Facuarse1"
43.57236915,3.94801217455725,"lacigale02"
25.7742658,-80.1936589,"lopezgovlaw"
19.4326009,-99.1333416,"tri_europeo"
54.347628,18.6452029,"matipl"
-32.6595751,-62.297024,"JulioLlabres"
-37.8142176,144.9631608,"magpie_fever"
49.4871968,31.2718321,"lzedmitryy"
4.5980772,-74.0761028,"MeAndiAG"
4.6617449,-74.0678010056575,"manuneta"
53.4310417,-1.355187,"getleansocial"
36.7014631,-118.7559974,"rocakay"
4.5980772,-74.0761028,"Ivonne_Arteaga"
19.4326009,-99.1333416,"ponchodeanda"
-12.0621065,-77.0365256,"mercerdita"
39.455055,-104.71374,"JuanBanda13"
30.3308401,71.247499,"globalsentiment"
-1.9342906,30.1178996,"Tumukund"
17.7356214,9.3238432,"Uber1235"
-8.7996802,115.1506101,"MS_Qolbi"
33.63573935,72.9230467027632,"ArsalanAbbas_"
50.4501071,30.5240501,"sergiusthebest"
-6.1753942,106.827183,"PETAJakarta"
25.6242618,42.3528328,"AlwatanSA"
25.7742658,-80.1936589,"undadj"
5.6596441,-0.0096592,"enqey_"
-7.4039881,111.4452353,"Rihana93_"
-1.8859597,30.1296751,"Menyanibi"
55.821744,37.3404142,"markoorguk"
25.23893685,55.1764064987078,"AbE_Shake"
43.5026432,11.8827542,"RimlandSky"
23.0216238,72.5797068,"WanderfulJay"
27.708796,85.320244,"Everestinpeace"
51.50609,-0.2312992,"wailll"
28.6517178,77.2219388,"SucharitaS1990"
20.967141,-89.6237,"Kaar97"
53.4037234,-2.96535956010089,"itz_Maikudi"
-6.824096,107.1374006,"LamiaAzahra1"
19.4326009,-99.1333416,"Kristhb_"
51.3713049,-0.101957,"luketcarey1989"
2.9470179,30.961206,"Fadiradi"
4.6617449,-74.0678010056575,"omateusv"
28.6141793,77.2022662,"demnindia"
25.6242618,42.3528328,"aaaama1111"
41.3828939,2.1774322,"Barsa_Retweet"
29.2733964,47.4979476,"EuroFBN"
19.1334321,72.8882172,"rajeevbfy"
-6.1753942,106.827183,"bobby_fauzie"
2.8894434,-73.783892,"Adrri___"
31,72,"Dr_Sara_Anwar"
-34.6130461,-58.3824172,"huntvthor"
40.6809354,-73.6154064,"DBfrick"
53.4054719,-2.9805392,"alhuda06"
50.000678,-86.000977,"uPandaho"
4.5980772,-74.0761028,"Luisa_fp24"
20.5889201,-100.3944372,"rz_ocampo"
31.5164908,74.3294942,"murtaza323"
25.6093239,85.1235252,"amitathome"
9.624388,-73.2125095,"SassyTaff"
14.8971921,100.83273,"ammalohh"
-6.8699697,-75.0458515,"milena_y_huan"
9.0643305,7.4892974,"alegallawyer"
23.7593572,90.3788136,"ripolok"
36.7014631,-118.7559974,"Tiffany69606393"
35.0030052,133.7037385,"ikimonoyear"
-28.8166236,24.991639,"dailymaverick"
20.7598594,-77.860272,"MicroPromoGves"
-34.9206797,-57.9537638,"lbaschar"
5.3288298,116.1555399,"kemisera"
-8.1993049,-35.5631137,"armneto"
8.3096067,-81.3066246,"KSAPTY"
13.0801721,80.2838331,"toptamilnews"
48.8566101,2.3514992,"Sremoh_"
40.2109801,-8.4292057,"trocadabola"
20.967141,-89.6237,"alejandro_chi1"
-24.7761086,134.755,"Dkawira"
19.4326009,-99.1333416,"varluke"
-33.8548157,151.2164539,"blotography"
3.5308373,-76.2988048,"LuisFer_EA"
36.7014631,-118.7559974,"Tshirt_Amazon"
-37.8142176,144.9631608,"latu05"
45.7656666,126.6160584,"llasssf"
-23.960833,-46.333889,"drcaio_"
2.3923759,112.8471939,"almacav_"
56.4908492,-2.7822517,"upendradixit21"
25.63978365,-100.293101629066,"SadaDiego"
-28.8166236,24.991639,"ThamiSoccer"
4.6617449,-74.0678010056575,"mnavas28"
55.7507178,37.6176606,"OllyGuseva"
35.62125,139.688014,"waka__chang"
56.9493977,24.1051846,"limeni_lv"
28.6141793,77.2022662,"Nanak02434910"
39.5156569,-77.0733152,"_sungoesdown_"
19.4326009,-99.1333416,"aleexis_23"
16.4263803,-93.1404794,"OZZVA"
19.4326009,-99.1333416,"LuzMariaGoreti3"
51.9191343,30.8243039,"gofr65"
39.7837304,-100.4458825,"Soulmusic_promo"
34.6968642,139.4049033,"fujimikan2008"
34.6968642,139.4049033,"nrk_tvxq"
53.45733965,-2.22695880505223,"SportWizzleague"
19.3901819,-99.0950600611131,"malikpilote"
-1.2431415,-78.6224161,"CyrceaNu"
22.5000001,-100.5000001,"BlancaB45841980"
19.4326009,-99.1333416,"BetoQuiroga"
41.8755546,-87.6244212,"CubsCat"
35.673011,140.083819,"yanekan"
28.1083929,84.0917139,"kumarpaudel53"
50.6407351,4.66696,"MS24coach"
3.4319329,-76.5113048,"nelsonpazval"
27.7196818,85.3394692,"rghising"
18.833333,-98,"FergyDiazTorres"
19.4326009,-99.1333416,"lilivett91"
25.7742658,-80.1936589,"Alessita78"
-0.2201641,-78.5123274,"GermanAnda"
19.5274085,-96.9238793,"oliLince"
37.9733083,23.7247442,"johnniejohnhat2"
2.8894434,-73.783892,"oscarnunezn"
40.0757384,-74.4041622,"gutierrez_619"
23.4559809,85.2557301,"goswamivijay986"
56.0000002,103.9999998,"ConventusFDI"
2.8894434,-73.783892,"Jayepes"
7.8776956,-72.4866182,"Lauris_Villamil"
61.0666922,-107.9917071,"chance4gardener"
19.4326009,-99.1333416,"saludarmonica"
-19.9227318,-43.9450948,"YubMiranda"
50.4501071,30.5240501,"VPolichsh"
-34.9964963,-64.9672817,"wakeupxthedemon"
20.52253925,-100.830730342024,"Lalo4632"
-10.3333333,-53.2,"vannsprado"
53.198627,50.113987,"LuisAndresHenao"
11.01184845,-74.8086460830206,"JacoboGonzalez0"
5.9927858,100.4791433,"YatMoharany"
22.3511148,78.6677428,"SportsMate3"
8.9714493,-79.5341802,"AurelioMartine"
4.5980772,-74.0761028,"yeisonm20"
37.9822894,-1.1109825,"NandreaBeltran"
-2.9888297,104.756857,"mgsirfan"
52.5170365,13.3888599,"berlin_ny"
4.5980772,-74.0761028,"pedrofuentes100"
36.5748441,139.2394179,"buschanpiksi"
28.1083929,84.0917139,"neymarsuryajr"
19.32055625,-99.1517010707765,"eannad"
19.4326009,-99.1333416,"infinIT_mx"
41.3828939,2.1774322,"carmensoriano82"
39.063956,-108.5507317,"TheiShafeen"
4.8142912,-75.6946451,"levinsonfm"
4.5980772,-74.0761028,"Xerex2181"
48.477473,-81.330414,"NatriceR"
-27.4689682,153.0234991,"mindfulheal"
9.6000359,7.9999721,"BANDEAT09"
40.8762106,-74.0298621,"samipuan"
34.2239835,-118.2403974,"Xian_D_Paredes"
-42.9165061,-71.3363881,"Ergul8"
15.6356088,-89.8988087,"ozibru"
50.0619474,19.9368564,"Zygmund_August"
-2.1704143,-79.9050240842775,"josemariamq7"
34.704365,135.501887,"LOVE57387478"
48.9467562,11.4038717,"EnzoUrzo"
3.9696002,108.1756093,"yudhasetyawan07"
41.8933203,12.4829321,"AnfitriteDiana"
2.8894434,-73.783892,"AlexisBernalC"
6.4550575,3.3941795,"ProperLagosBoy"
18.2889316,-66.6772404594048,"CityMarketccs"
26.2171308,50.5694817,"iosjr_"
28.6141793,77.2022662,"deepi1591"
-33.4377968,-70.6504451,"lizvanbo"
11.0018115,76.9628425,"kingmakerariy"
49.316171,-117.663574,"scowlyguy"
13.7538929,100.8160803,"JPrangthong"
50.0874654,14.4212535,"martinstein23"
4.81804785,-75.6888617199333,"yfmradio"
5.0620431,-74.062503007411,"25_fredy"
-33.8548157,151.2164539,"GeorgeBakhos1"
-33.8548157,151.2164539,"oldworldorder1"
4.5980772,-74.0761028,"Jean_Pierre1402"
-2.1704143,-79.9050240842775,"JCOA97"
46.4281717,7.3747309,"LaAlacenaTv"
48.8440437,2.2934455,"MUK2nd"
7.0000085,-73.2500086,"Edward_Desu"
22.3045769,70.802161,"vishal_vadoliya"
8.0018709,-66.1109318,"hmovilla"
40.0796319,-89.4339809,"TheRealKing473"
22.9964948,87.6855882,"dey_iamsubham"
40.19531445,44.5146085133621,"blongz2me"
51.5163047,-0.1792423,"dominicsg"
9.08251365,-83.2465025101169,"pabloandrescoca"
40.8762106,-74.0298621,"andres_pabon"
-15.7934036,-47.8823172,"JocelmoCimas"
2.8894434,-73.783892,"JohnFSolano8"
4.6617449,-74.0678010056575,"alejaaponte12"
-42.9165061,-71.3363881,"pabanca"
36.5748441,139.2394179,"Terra_773"
1.5574127,110.3439862,"adrizamri"
-27.7032286,-48.4974384,"LuisPoveda91"
23.1338719,-82.3971448,"Dank_Senzu_Weed"
-0.2201641,-78.5123274,"tinellibt"
-3.1316333,-59.9825041,"CostaNacilene"
34.704365,135.501887,"ogawa_satoru5"
45.4754429,-75.6989462845435,"EliteSportSocc"
39.7837304,-100.4458825,"florida_sophia"
11.01184845,-74.8086460830206,"cicconews"
19.07236245,-98.3223472316149,"iramramirez"
-34.9059039,-56.1913569,"jumican"
2.9470179,30.961206,"IftikharReal"
40.8762106,-74.0298621,"omar_anpiforme"
7.9366015,98.3529292,"jk_tong"
4.5980772,-74.0761028,"LaRaraMaria"
28.6141793,77.2022662,"csaikat22"
19.7078812,-101.1569649,"DianaBeNu"
19.3829963,-99.0122567,"MonstruodeAgua"
-3.7304512,-38.5217989,"Paulo7662"
16.4263803,-93.1404794,"flor_manzana"
5.4982577,100.384931758485,"ayie0401"
40.7306458,-73.9866136,"bragamontes"
40.3042778,-73.9923596,"amlbranch"
40.7306458,-73.9866136,"hons4me"
30.7194022,76.7646552,"vaizle"
51.5073219,-0.1276474,"GoonerRyan86"
46.603354,1.8883335,"MaisonDuCoeur"
14.4845383,121.0221299,"Riyas93M"
19.4326009,-99.1333416,"huelemishampoo"
9.1415643,99.329055,"pimpn_p"
44.24620635,-0.183997873923679,"LeToonsN1"
-8.0641931,-34.8781517,"Silva_Ciso"
55.7507178,37.6176606,"Sergey_Che_"
40.9925844,-75.9101994,"TeeKay118"
-12.8258799,-38.2651531,"antoniodessouza"
13.7538929,100.8160803,"NoxsieJt"
0.642715,122.5909774,"rizalhashim801"
9.624388,-73.2125095,"drinking_ninja"
2.8894434,-73.783892,"JuampiPale4"
2.8894434,-73.783892,"linacruel"
11.0193866,-74.1223011,"CandyCaneSorrel"
21.9836197,-99.0047027,"israaelahumada"
2.3923759,112.8471939,"aquden"
34.728801,135.59691,"nakatani2017"
-26.205,28.049722,"DakarSA_96"
-33.8548157,151.2164539,"Prydzopolis"
3.5308373,-76.2988048,"herrerajulian98"
40.6932715,-111.9545824,"nabetaku_mty"
25.011997,121.4656619,"TW_nextmedia"
-34.6958202,150.795912313851,"KiamaBlowhole"
13.7538929,100.8160803,"AUIWORACHAT"
45.4972159,-73.6103642,"mabadiane25"
40.74123595,-73.356691165361,"elronnyfrios"
52.7954791,-0.540240286617432,"jesslambie"
54.8611124,-1.43201801730217,"thecitysevents"
25.63978365,-100.293101629066,"chuyitohurtado"
8.51577,-73.3448605,"AndresBarinas18"
33.1958696,-117.3794834,"mabartem"
40.7306458,-73.9866136,"skmagee"
23.6263387,58.56217885,"Ettounsya"
51.5073219,-0.1276474,"KwanYuthin"
-37.8142176,144.9631608,"AmazingSMP"
19.4326009,-99.1333416,"KingCreole_Zoso"
14.4750607,-14.4529612,"iamogprod"
4.6617449,-74.0678010056575,"caritobello1032"
-19.8599637,-44.6075313,"amaralarquiteto"
22.26782815,114.152109283703,"KelllyJoya"
40.4167047,-3.7035825,"Encuesta24horas"
19.4326009,-99.1333416,"davidhuitronm"
34.6968642,139.4049033,"carleaaa"
-17.9698192,-67.1148635,"elicapri20"
36.6507007,117.1140042,"waterliker"
19.4326009,-99.1333416,"SalimKuri"
2.3923759,112.8471939,"Alfasyda36"
19.4326009,-99.1333416,"Ita_Mendhez"
-2,-80,"jmpz14"
12.9791198,77.5912997,"Anuperfection"
4.5980772,-74.0761028,"YordiAlejoS"
35.1968074,136.864835232295,"yumemizuki_18"
-42.9165061,-71.3363881,"CarlosFeruglio"
19.4326009,-99.1333416,"SKCOMUNICACION"
-6.1753942,106.827183,"faridariadno"
-23.5506507,-46.6333824,"chafikbuttros"
19.4326009,-99.1333416,"Crch98251085"
-33.4377968,-70.6504451,"nacho_abarca"
-32.8755548,-56.0201525,"ysisomos3"
36.7014631,-118.7559974,"Messi10GOD"
14.4684819,100.1160317,"NNNNNuiiii"
23.9921961,-104.6569558,"joseramonmarmtz"
31.778345,35.2250786,"themerrydamber"
1.2904753,103.8520359,"bolasepako"
-10.3333333,-53.2,"Marcelosdemoura"
50.8956142,14.3157371,"CokitoRubio"
-20.4648425,-45.4266753,"sauloliveira_13"
-23.5506507,-46.6333824,"rcbrasil"
-33.8548157,151.2164539,"bonitamersiades"
16.8581352,106.8588935,"NguyenQu0cKhanh"
25.7742658,-80.1936589,"goandfundme"
19.4326009,-99.1333416,"eva_ticante"
-36.7144863,-73.1141463,"MarceloCorreaJ4"
25.7742658,-80.1936589,"angiepereztv"
46.6987189,5.9515352,"abumusa911_"
31.8160381,-99.5120986,"dylan_thfc"
34.5978776,-90.7523336,"YesicaMylano"
4.5980772,-74.0761028,"ReaalMadridismo"
4.6617449,-74.0678010056575,"sergiodeshecho"
7.8776956,-72.4866182,"Alexa_Pacan"
53.6916,-1.30775,"GeneratorDirect"
40.6501038,-73.9495823,"thetruthin2017"
4.6617449,-74.0678010056575,"bscl_brayuto98"
4.5980772,-74.0761028,"AndresMorenoGz"
37.9271209,32.477161,"rokko_42"
35.8884554,-5.3311979,"CiroConTornillo"
40.8762106,-74.0298621,"juan03_"
51.53124775,-0.0972932148573733,"CreatesTm"
-22.9110137,-43.2093727,"MarceloDunlop"
-27.3664867,-55.8939677,"djsebasona"
-5.1904332,-37.3443872,"leohbo95"
59.5981442,8.6504655,"jr_k22"
-23.5506507,-46.6333824,"KerhartVinicius"
8.0018709,-66.1109318,"SaborMagros"
10.3529588,76.5119752,"nandu_mufc_"
19.4326009,-99.1333416,"estobarrera"
33.6874388,-80.4363743,"Crstobal"
18.011564,-66.613958,"gwrive"
4.5980772,-74.0761028,"santymellizo10"
4.5980772,-74.0761028,"devescobar"
-23.5506507,-46.6333824,"plassabones9"
40.446495,-74.3859831,"bigvic_santos"
48.8661212,2.3443873,"stncabjmufc"
51.5073219,-0.1276474,"theroyaleditor"
42.3604823,-71.0595678,"snaps4life"
25.8470631,-100.3934347,"juaniyo15"
-7.846423,112.1005469,"JKonhin"
-6.1753942,106.827183,"nurfahmibudi"
-27.4687004,-58.8312304,"Marijo2908"
-10.5827616,-38.6122305,"brunobanzae"
34.6968642,139.4049033,"Giants7c"
19.3273399,-99.0191905,"fishtrenado"
34.6968642,139.4049033,"kyodo_sports_en"
23.0000001,-103.0000001,"_iAngeel"
3.1390281,101.5966975,"lutfiadamn"
-22.9110137,-43.2093727,"futebollnutella"
-31.419051,-64.1823115,"kentacamila"
46.0050102,8.9520281,"TizFerrari76"
10.506098,-66.9146017,"NEORAM27"
4.6617449,-74.0678010056575,"eduarthegrate"
36.5748441,139.2394179,"K2001Krf"
